$GPGGA,053954.40,3714.3287,N,12646.3747,E,2,09,1.0,7.47,M,22.50,M,01,0090*6B
$GPGGA,053954.50,3714.3289,N,12646.3747,E,2,09,1.0,7.46,M,22.50,M,01,0090*65
$GPGGA,053954.60,3714.3290,N,12646.3748,E,2,09,1.0,7.47,M,22.50,M,00,0090*61
$GPGGA,053954.70,3714.3291,N,12646.3748,E,2,09,1.0,7.47,M,22.50,M,00,0090*61
$GPGGA,053954.80,3714.3293,N,12646.3748,E,2,09,1.0,7.47,M,22.50,M,00,0090*6C
$GPGGA,053954.90,3714.3294,N,12646.3749,E,2,09,1.0,7.46,M,22.50,M,00,0090*6A
$GPGGA,053955.00,3714.3296,N,12646.3749,E,2,09,1.0,7.47,M,22.50,M,01,0090*60
$GPGGA,053955.10,3714.3298,N,12646.3750,E,2,09,1.0,7.47,M,22.50,M,01,0090*67
$GPGGA,053955.20,3714.3299,N,12646.3750,E,2,09,1.0,7.48,M,22.50,M,01,0090*6A
$GPGGA,053955.30,3714.3301,N,12646.3751,E,2,09,1.0,7.50,M,22.50,M,01,0090*63
$GPGGA,053955.40,3714.3302,N,12646.3751,E,2,09,1.0,7.51,M,22.50,M,01,0090*66
$GPGGA,053955.50,3714.3304,N,12646.3752,E,2,09,1.0,7.50,M,22.50,M,01,0090*63
$GPGGA,053955.60,3714.3305,N,12646.3752,E,2,09,1.0,7.50,M,22.50,M,00,0090*60
$GPGGA,053955.70,3714.3307,N,12646.3753,E,2,09,1.0,7.52,M,22.50,M,00,0090*60
$GPGGA,053955.80,3714.3308,N,12646.3753,E,2,09,1.0,7.51,M,22.50,M,00,0090*63
$GPGGA,053955.90,3714.3310,N,12646.3754,E,2,09,1.0,7.51,M,22.50,M,00,0090*6C
$GPGGA,053956.00,3714.3311,N,12646.3754,E,2,09,1.0,7.51,M,22.50,M,01,0090*66
$GPGGA,053956.10,3714.3312,N,12646.3755,E,2,09,1.0,7.51,M,22.50,M,01,0090*65
$GPGGA,053956.20,3714.3314,N,12646.3755,E,2,09,1.0,7.51,M,22.50,M,01,0090*60
$GPGGA,053956.30,3714.3315,N,12646.3756,E,2,09,1.0,7.52,M,22.50,M,01,0090*60
$GPGGA,053956.40,3714.3317,N,12646.3757,E,2,09,1.0,7.52,M,22.50,M,01,0090*64
$GPGGA,053956.50,3714.3319,N,12646.3757,E,2,09,1.0,7.53,M,22.50,M,01,0090*6A
$GPGGA,053956.60,3714.3320,N,12646.3758,E,2,09,1.0,7.53,M,22.50,M,01,0090*6C
$GPGGA,053956.70,3714.3322,N,12646.3759,E,2,09,1.0,7.53,M,22.50,M,00,0090*6F
$GPGGA,053956.80,3714.3323,N,12646.3760,E,2,09,1.0,7.53,M,22.50,M,00,0090*6B
$GPGGA,053956.90,3714.3325,N,12646.3760,E,2,09,1.0,7.54,M,22.50,M,00,0090*6B
$GPGGA,053957.00,3714.3327,N,12646.3761,E,2,09,1.0,7.55,M,22.50,M,01,0090*60
$GPGGA,053957.10,3714.3328,N,12646.3762,E,2,09,1.0,7.54,M,22.50,M,01,0090*6C
$GPGGA,053957.20,3714.3330,N,12646.3763,E,2,09,1.0,7.55,M,22.50,M,01,0090*66
$GPGGA,053957.30,3714.3332,N,12646.3764,E,2,09,1.0,7.53,M,22.50,M,01,0090*64
$GPGGA,053957.40,3714.3334,N,12646.3765,E,2,09,1.0,7.53,M,22.50,M,01,0090*64
$GPGGA,053957.50,3714.3336,N,12646.3766,E,2,09,1.0,7.53,M,22.50,M,00,0090*65
$GPGGA,053957.60,3714.3337,N,12646.3767,E,2,09,1.0,7.53,M,22.50,M,00,0090*66
$GPGGA,053957.70,3714.3339,N,12646.3768,E,2,09,1.0,7.54,M,22.50,M,00,0090*61
$GPGGA,053957.80,3714.3341,N,12646.3769,E,2,09,1.0,7.54,M,22.50,M,00,0090*60
$GPGGA,053957.90,3714.3343,N,12646.3770,E,2,09,1.0,7.54,M,22.50,M,00,0090*6B
$GPGGA,053958.00,3714.3346,N,12646.3771,E,2,09,1.0,7.54,M,22.50,M,01,0090*68
$GPGGA,053958.10,3714.3348,N,12646.3772,E,2,09,1.0,7.55,M,22.50,M,01,0090*65
$GPGGA,053958.20,3714.3350,N,12646.3774,E,2,09,1.0,7.55,M,22.50,M,01,0090*69
$GPGGA,053958.30,3714.3352,N,12646.3775,E,2,09,1.0,7.61,M,22.50,M,01,0090*6C
$GPGGA,053958.40,3714.3354,N,12646.3776,E,2,09,1.0,7.61,M,22.50,M,01,0090*6E
$GPGGA,053958.50,3714.3357,N,12646.3778,E,2,09,1.0,7.61,M,22.50,M,01,0090*62
$GPGGA,053958.60,3714.3359,N,12646.3779,E,2,09,1.0,7.62,M,22.50,M,00,0090*6C
$GPGGA,053958.70,3714.3362,N,12646.3780,E,2,09,1.0,7.62,M,22.50,M,00,0090*63
$GPGGA,053958.80,3714.3364,N,12646.3782,E,2,09,1.0,7.62,M,22.50,M,00,0090*68
$GPGGA,053958.90,3714.3366,N,12646.3783,E,2,09,1.0,7.62,M,22.50,M,00,0090*6A
$GPGGA,053959.00,3714.3369,N,12646.3785,E,2,09,1.0,7.64,M,22.50,M,01,0090*6C
$GPGGA,053959.10,3714.3371,N,12646.3786,E,2,09,1.0,7.63,M,22.50,M,01,0090*60
$GPGGA,053959.20,3714.3374,N,12646.3788,E,2,09,1.0,7.63,M,22.50,M,01,0090*68
$GPGGA,053959.30,3714.3377,N,12646.3790,E,2,09,1.0,7.66,M,22.50,M,01,0090*66
$GPGGA,053959.40,3714.3379,N,12646.3791,E,2,09,1.0,7.65,M,22.50,M,01,0090*6D
$GPGGA,053959.50,3714.3382,N,12646.3793,E,2,09,1.0,7.66,M,22.50,M,00,0090*68
$GPGGA,053959.60,3714.3385,N,12646.3795,E,2,09,1.0,7.67,M,22.50,M,00,0090*6B
$GPGGA,053959.70,3714.3388,N,12646.3796,E,2,09,1.0,7.67,M,22.50,M,00,0090*64
$GPGGA,053959.80,3714.3390,N,12646.3798,E,2,09,1.0,7.67,M,22.50,M,00,0090*6C
$GPGGA,053959.90,3714.3393,N,12646.3800,E,2,09,1.0,7.67,M,22.50,M,00,0090*60
$GPGGA,054000.00,3714.3396,N,12646.3802,E,2,09,1.0,7.67,M,22.50,M,01,0090*6D
$GPGGA,054000.10,3714.3399,N,12646.3803,E,2,09,1.0,7.68,M,22.50,M,01,0090*6D
$GPGGA,054000.20,3714.3402,N,12646.3805,E,2,09,1.0,7.68,M,22.50,M,01,0090*6D
$GPGGA,054000.30,3714.3405,N,12646.3807,E,2,09,1.0,7.72,M,22.50,M,01,0090*62
$GPGGA,054000.40,3714.3408,N,12646.3809,E,2,09,1.0,7.72,M,22.50,M,01,0090*66
$GPGGA,054000.50,3714.3411,N,12646.3811,E,2,09,1.0,7.72,M,22.50,M,00,0090*67
$GPGGA,054000.60,3714.3414,N,12646.3813,E,2,09,1.0,7.72,M,22.50,M,00,0090*63
$GPGGA,054000.70,3714.3417,N,12646.3815,E,2,09,1.0,7.72,M,22.50,M,00,0090*67
$GPGGA,054000.80,3714.3420,N,12646.3816,E,2,09,1.0,7.72,M,22.50,M,00,0090*6F
$GPGGA,054000.90,3714.3423,N,12646.3818,E,2,09,1.0,7.72,M,22.50,M,00,0090*63
$GPGGA,054001.00,3714.3426,N,12646.3820,E,2,09,1.0,7.73,M,22.50,M,01,0090*65
$GPGGA,054001.10,3714.3429,N,12646.3822,E,2,09,1.0,7.72,M,22.50,M,01,0090*68
$GPGGA,054001.20,3714.3431,N,12646.3824,E,2,09,1.0,7.72,M,22.50,M,01,0090*64
$GPGGA,054001.30,3714.3434,N,12646.3825,E,2,09,1.0,7.69,M,22.50,M,01,0090*6B
$GPGGA,054001.40,3714.3437,N,12646.3827,E,2,09,1.0,7.69,M,22.50,M,01,0090*6D
$GPGGA,054001.50,3714.3440,N,12646.3829,E,2,09,1.0,7.68,M,22.50,M,01,0090*63
$GPGGA,054001.60,3714.3443,N,12646.3831,E,2,09,1.0,7.68,M,22.50,M,00,0090*6B
$GPGGA,054001.70,3714.3446,N,12646.3833,E,2,09,1.0,7.68,M,22.50,M,00,0090*6D
$GPGGA,054001.80,3714.3449,N,12646.3835,E,2,09,1.0,7.68,M,22.50,M,00,0090*6B
$GPGGA,054001.90,3714.3452,N,12646.3837,E,2,09,1.0,7.68,M,22.50,M,00,0090*62
$GPGGA,054002.00,3714.3455,N,12646.3838,E,2,09,1.0,7.68,M,22.50,M,01,0090*61
$GPGGA,054002.10,3714.3458,N,12646.3840,E,2,09,1.0,7.67,M,22.50,M,01,0090*6D
$GPGGA,054002.20,3714.3461,N,12646.3842,E,2,09,1.0,7.67,M,22.50,M,01,0090*66
$GPGGA,054002.30,3714.3464,N,12646.3844,E,2,09,1.0,7.64,M,22.50,M,01,0090*67
$GPGGA,054002.40,3714.3467,N,12646.3846,E,2,09,1.0,7.63,M,22.50,M,01,0090*66
$GPGGA,054002.50,3714.3470,N,12646.3848,E,2,09,1.0,7.64,M,22.50,M,00,0090*69
$GPGGA,054002.60,3714.3473,N,12646.3850,E,2,09,1.0,7.64,M,22.50,M,00,0090*60
$GPGGA,054002.70,3714.3476,N,12646.3852,E,2,09,1.0,7.64,M,22.50,M,00,0090*66
$GPGGA,054002.80,3714.3479,N,12646.3854,E,2,09,1.0,7.64,M,22.50,M,00,0090*60
$GPGGA,054002.90,3714.3482,N,12646.3855,E,2,09,1.0,7.64,M,22.50,M,00,0090*64
$GPGGA,054003.00,3714.3485,N,12646.3857,E,2,09,1.0,7.65,M,22.50,M,01,0090*69
$GPGGA,054003.10,3714.3488,N,12646.3859,E,2,09,1.0,7.65,M,22.50,M,01,0090*6B
$GPGGA,054003.20,3714.3491,N,12646.3861,E,2,09,1.0,7.65,M,22.50,M,01,0090*6B
$GPGGA,054003.30,3714.3494,N,12646.3863,E,2,09,1.0,7.65,M,22.50,M,01,0090*6D
$GPGGA,054003.40,3714.3497,N,12646.3865,E,2,09,1.0,7.65,M,22.50,M,01,0090*6F
$GPGGA,054003.50,3714.3500,N,12646.3867,E,2,09,1.0,7.66,M,22.50,M,00,0090*61
$GPGGA,054003.60,3714.3503,N,12646.3869,E,2,09,1.0,7.66,M,22.50,M,00,0090*6F
$GPGGA,054003.70,3714.3506,N,12646.3871,E,2,09,1.0,7.66,M,22.50,M,00,0090*62
$GPGGA,054003.80,3714.3510,N,12646.3873,E,2,09,1.0,7.66,M,22.50,M,00,0090*68
$GPGGA,054003.90,3714.3513,N,12646.3875,E,2,09,1.0,7.66,M,22.50,M,00,0090*6C
$GPGGA,054004.00,3714.3516,N,12646.3877,E,2,09,1.0,7.66,M,22.50,M,01,0090*64
$GPGGA,054004.10,3714.3519,N,12646.3879,E,2,09,1.0,7.67,M,22.50,M,01,0090*65
$GPGGA,054004.20,3714.3522,N,12646.3882,E,2,09,1.0,7.66,M,22.50,M,01,0090*6B
$GPGGA,054004.30,3714.3525,N,12646.3884,E,2,09,1.0,7.64,M,22.50,M,01,0090*69
$GPGGA,054004.40,3714.3529,N,12646.3886,E,2,09,1.0,7.64,M,22.50,M,01,0090*60
$GPGGA,054004.50,3714.3532,N,12646.3888,E,2,09,1.0,7.64,M,22.50,M,00,0090*64
$GPGGA,054004.60,3714.3535,N,12646.3890,E,2,09,1.0,7.64,M,22.50,M,00,0090*69
$GPGGA,054004.70,3714.3538,N,12646.3892,E,2,09,1.0,7.64,M,22.50,M,00,0090*67
$GPGGA,054004.80,3714.3542,N,12646.3894,E,2,09,1.0,7.64,M,22.50,M,00,0090*63
$GPGGA,054004.90,3714.3545,N,12646.3896,E,2,09,1.0,7.64,M,22.50,M,00,0090*67
$GPGGA,054005.00,3714.3548,N,12646.3899,E,2,09,1.0,7.64,M,22.50,M,01,0090*6C
$GPGGA,054005.10,3714.3551,N,12646.3901,E,2,09,1.0,7.64,M,22.50,M,01,0090*65
$GPGGA,054005.20,3714.3555,N,12646.3903,E,2,09,1.0,7.64,M,22.50,M,01,0090*60
$GPGGA,054005.30,3714.3558,N,12646.3905,E,2,09,1.0,7.57,M,22.50,M,01,0090*6A
$GPGGA,054005.40,3714.3561,N,12646.3907,E,2,09,1.0,7.57,M,22.50,M,01,0090*65
$GPGGA,054005.50,3714.3565,N,12646.3909,E,2,09,1.0,7.57,M,22.50,M,01,0090*6E
$GPGGA,054005.60,3714.3568,N,12646.3912,E,2,09,1.0,7.57,M,22.50,M,01,0090*6A
$GPGGA,054005.70,3714.3571,N,12646.3914,E,2,09,1.0,7.57,M,22.50,M,00,0090*64
$GPGGA,054005.80,3714.3575,N,12646.3916,E,2,09,1.0,7.56,M,22.50,M,00,0090*6C
$GPGGA,054005.90,3714.3578,N,12646.3918,E,2,09,1.0,7.57,M,22.50,M,00,0090*6F
$GPGGA,054006.00,3714.3582,N,12646.3921,E,2,09,1.0,7.57,M,22.50,M,01,0090*6B
$GPGGA,054006.10,3714.3585,N,12646.3923,E,2,09,1.0,7.56,M,22.50,M,01,0090*6E
$GPGGA,054006.20,3714.3589,N,12646.3925,E,2,09,1.0,7.56,M,22.50,M,01,0090*67
$GPGGA,054006.30,3714.3592,N,12646.3927,E,2,09,1.0,7.56,M,22.50,M,01,0090*6E
$GPGGA,054006.40,3714.3596,N,12646.3930,E,2,09,1.0,7.55,M,22.50,M,01,0090*68
$GPGGA,054006.50,3714.3599,N,12646.3932,E,2,09,1.0,7.55,M,22.50,M,00,0090*65
$GPGGA,054006.60,3714.3603,N,12646.3934,E,2,09,1.0,7.55,M,22.50,M,00,0090*60
$GPGGA,054006.70,3714.3606,N,12646.3937,E,2,09,1.0,7.55,M,22.50,M,00,0090*67
$GPGGA,054006.80,3714.3610,N,12646.3939,E,2,09,1.0,7.55,M,22.50,M,00,0090*61
$GPGGA,054006.90,3714.3613,N,12646.3941,E,2,09,1.0,7.55,M,22.50,M,00,0090*6C
$GPGGA,054007.00,3714.3617,N,12646.3944,E,2,09,1.0,7.55,M,22.50,M,01,0090*64
$GPGGA,054007.10,3714.3620,N,12646.3946,E,2,09,1.0,7.56,M,22.50,M,01,0090*60
$GPGGA,054007.20,3714.3624,N,12646.3948,E,2,09,1.0,7.56,M,22.50,M,01,0090*69
$GPGGA,054007.30,3714.3628,N,12646.3950,E,2,09,1.0,7.51,M,22.50,M,01,0090*6A
$GPGGA,054007.40,3714.3631,N,12646.3953,E,2,09,1.0,7.51,M,22.50,M,01,0090*66
$GPGGA,054007.50,3714.3635,N,12646.3955,E,2,09,1.0,7.51,M,22.50,M,01,0090*65
$GPGGA,054007.60,3714.3639,N,12646.3958,E,2,09,1.0,7.51,M,22.50,M,01,0090*67
$GPGGA,054007.70,3714.3642,N,12646.3960,E,2,09,1.0,7.51,M,22.50,M,00,0090*60
$GPGGA,054007.80,3714.3646,N,12646.3962,E,2,09,1.0,7.51,M,22.50,M,00,0090*69
$GPGGA,054007.90,3714.3649,N,12646.3965,E,2,09,1.0,7.50,M,22.50,M,00,0090*61
$GPGGA,054008.00,3714.3653,N,12646.3967,E,2,09,1.0,7.51,M,22.50,M,01,0090*6E
$GPGGA,054008.10,3714.3657,N,12646.3969,E,2,09,1.0,7.51,M,22.50,M,01,0090*65
$GPGGA,054008.20,3714.3660,N,12646.3972,E,2,09,1.0,7.52,M,22.50,M,01,0090*6B
$GPGGA,054008.30,3714.3664,N,12646.3974,E,2,09,1.0,7.49,M,22.50,M,01,0090*62
$GPGGA,054008.40,3714.3667,N,12646.3977,E,2,09,1.0,7.49,M,22.50,M,01,0090*65
$GPGGA,054008.50,3714.3671,N,12646.3979,E,2,09,1.0,7.49,M,22.50,M,01,0090*6D
$GPGGA,054008.60,3714.3675,N,12646.3981,E,2,09,1.0,7.49,M,22.50,M,00,0090*6C
$GPGGA,054008.70,3714.3678,N,12646.3984,E,2,09,1.0,7.49,M,22.50,M,00,0090*65
$GPGGA,054008.80,3714.3682,N,12646.3986,E,2,09,1.0,7.49,M,22.50,M,00,0090*6D
$GPGGA,054008.90,3714.3685,N,12646.3989,E,2,09,1.0,7.48,M,22.50,M,00,0090*65
$GPGGA,054009.00,3714.3689,N,12646.3991,E,2,09,1.0,7.49,M,22.50,M,01,0090*68
$GPGGA,054009.10,3714.3692,N,12646.3993,E,2,09,1.0,7.48,M,22.50,M,01,0090*60
$GPGGA,054009.20,3714.3696,N,12646.3996,E,2,09,1.0,7.48,M,22.50,M,01,0090*62
$GPGGA,054009.30,3714.3699,N,12646.3998,E,2,09,1.0,7.47,M,22.50,M,01,0090*6D
$GPGGA,054009.40,3714.3703,N,12646.4000,E,2,09,1.0,7.47,M,22.50,M,01,0090*67
$GPGGA,054009.50,3714.3706,N,12646.4002,E,2,09,1.0,7.47,M,22.50,M,01,0090*61
$GPGGA,054009.60,3714.3710,N,12646.4005,E,2,09,1.0,7.47,M,22.50,M,00,0090*63
$GPGGA,054009.70,3714.3713,N,12646.4007,E,2,09,1.0,7.47,M,22.50,M,00,0090*63
$GPGGA,054009.80,3714.3717,N,12646.4010,E,2,09,1.0,7.46,M,22.50,M,00,0090*6F
$GPGGA,054009.90,3714.3720,N,12646.4012,E,2,09,1.0,7.46,M,22.50,M,00,0090*68
$GPGGA,054010.00,3714.3724,N,12646.4014,E,2,09,1.0,7.46,M,22.50,M,01,0090*6A
$GPGGA,054010.10,3714.3727,N,12646.4017,E,2,09,1.0,7.46,M,22.50,M,01,0090*6B
$GPGGA,054010.20,3714.3731,N,12646.4019,E,2,09,1.0,7.47,M,22.50,M,01,0090*60
$GPGGA,054010.30,3714.3734,N,12646.4021,E,2,09,1.0,7.41,M,22.50,M,01,0090*69
$GPGGA,054010.40,3714.3738,N,12646.4023,E,2,09,1.0,7.42,M,22.50,M,01,0090*63
$GPGGA,054010.50,3714.3741,N,12646.4026,E,2,09,1.0,7.43,M,22.50,M,01,0090*68
$GPGGA,054010.60,3714.3744,N,12646.4028,E,2,09,1.0,7.42,M,22.50,M,00,0090*60
$GPGGA,054010.70,3714.3748,N,12646.4030,E,2,09,1.0,7.43,M,22.50,M,00,0090*65
$GPGGA,054010.80,3714.3751,N,12646.4032,E,2,09,1.0,7.43,M,22.50,M,00,0090*60
$GPGGA,054010.90,3714.3754,N,12646.4034,E,2,09,1.0,7.42,M,22.50,M,00,0090*63
$GPGGA,054011.00,3714.3757,N,12646.4036,E,2,09,1.0,7.44,M,22.50,M,01,0090*6D
$GPGGA,054011.10,3714.3760,N,12646.4038,E,2,09,1.0,7.43,M,22.50,M,01,0090*61
$GPGGA,054011.20,3714.3764,N,12646.4040,E,2,09,1.0,7.43,M,22.50,M,01,0090*69
$GPGGA,054011.30,3714.3767,N,12646.4041,E,2,09,1.0,7.37,M,22.50,M,01,0090*69
$GPGGA,054011.40,3714.3770,N,12646.4043,E,2,09,1.0,7.37,M,22.50,M,01,0090*6A
$GPGGA,054011.50,3714.3773,N,12646.4045,E,2,09,1.0,7.37,M,22.50,M,01,0090*6E
$GPGGA,054011.60,3714.3776,N,12646.4046,E,2,09,1.0,7.38,M,22.50,M,01,0090*64
$GPGGA,054011.70,3714.3779,N,12646.4048,E,2,09,1.0,7.38,M,22.50,M,01,0090*64
$GPGGA,054011.80,3714.3782,N,12646.4049,E,2,09,1.0,7.38,M,22.50,M,00,0090*6F
$GPGGA,054011.90,3714.3785,N,12646.4051,E,2,09,1.0,7.39,M,22.50,M,00,0090*61
$GPGGA,054012.00,3714.3788,N,12646.4052,E,2,09,1.0,7.38,M,22.50,M,01,0090*65
$GPGGA,054012.10,3714.3791,N,12646.4053,E,2,09,1.0,7.38,M,22.50,M,01,0090*6D
$GPGGA,054012.20,3714.3794,N,12646.4054,E,2,09,1.0,7.38,M,22.50,M,01,0090*6C
$GPGGA,054012.30,3714.3797,N,12646.4055,E,2,09,1.0,7.33,M,22.50,M,01,0090*64
$GPGGA,054012.40,3714.3800,N,12646.4056,E,2,09,1.0,7.33,M,22.50,M,01,0090*61
$GPGGA,054012.50,3714.3803,N,12646.4057,E,2,09,1.0,7.33,M,22.50,M,01,0090*62
$GPGGA,054012.60,3714.3806,N,12646.4057,E,2,09,1.0,7.33,M,22.50,M,01,0090*64
$GPGGA,054012.70,3714.3809,N,12646.4058,E,2,09,1.0,7.33,M,22.50,M,01,0090*65
$GPGGA,054012.80,3714.3812,N,12646.4058,E,2,09,1.0,7.33,M,22.50,M,00,0090*61
$GPGGA,054012.90,3714.3815,N,12646.4059,E,2,09,1.0,7.33,M,22.50,M,00,0090*66
$GPGGA,054013.00,3714.3818,N,12646.4059,E,2,09,1.0,7.33,M,22.50,M,01,0090*62
$GPGGA,054013.10,3714.3820,N,12646.4059,E,2,09,1.0,7.33,M,22.50,M,01,0090*68
$GPGGA,054013.20,3714.3823,N,12646.4060,E,2,09,1.0,7.33,M,22.50,M,01,0090*62
$GPGGA,054013.30,3714.3826,N,12646.4059,E,2,09,1.0,7.27,M,22.50,M,01,0090*69
$GPGGA,054013.40,3714.3829,N,12646.4059,E,2,09,1.0,7.27,M,22.50,M,01,0090*61
$GPGGA,054013.50,3714.3832,N,12646.4059,E,2,09,1.0,7.28,M,22.50,M,01,0090*65
$GPGGA,054013.60,3714.3834,N,12646.4059,E,2,09,1.0,7.27,M,22.50,M,01,0090*6F
$GPGGA,054013.70,3714.3837,N,12646.4058,E,2,09,1.0,7.28,M,22.50,M,00,0090*62
$GPGGA,054013.80,3714.3840,N,12646.4058,E,2,09,1.0,7.27,M,22.50,M,00,0090*62
$GPGGA,054013.90,3714.3842,N,12646.4057,E,2,09,1.0,7.27,M,22.50,M,00,0090*6E
$GPGGA,054014.00,3714.3845,N,12646.4056,E,2,09,1.0,7.27,M,22.50,M,01,0090*67
$GPGGA,054014.10,3714.3848,N,12646.4055,E,2,09,1.0,7.28,M,22.50,M,01,0090*67
$GPGGA,054014.20,3714.3850,N,12646.4054,E,2,09,1.0,7.28,M,22.50,M,01,0090*6C
$GPGGA,054014.30,3714.3853,N,12646.4053,E,2,09,1.0,7.28,M,22.50,M,01,0090*69
$GPGGA,054014.40,3714.3855,N,12646.4052,E,2,09,1.0,7.28,M,22.50,M,01,0090*69
$GPGGA,054014.50,3714.3858,N,12646.4051,E,2,09,1.0,7.28,M,22.50,M,00,0090*67
$GPGGA,054014.60,3714.3860,N,12646.4049,E,2,09,1.0,7.28,M,22.50,M,00,0090*66
$GPGGA,054014.70,3714.3862,N,12646.4048,E,2,09,1.0,7.28,M,22.50,M,00,0090*64
$GPGGA,054014.80,3714.3864,N,12646.4046,E,2,09,1.0,7.28,M,22.50,M,00,0090*63
$GPGGA,054014.90,3714.3867,N,12646.4044,E,2,09,1.0,7.28,M,22.50,M,00,0090*63
$GPGGA,054015.00,3714.3869,N,12646.4042,E,2,09,1.0,7.28,M,22.50,M,01,0090*62
$GPGGA,054015.10,3714.3871,N,12646.4040,E,2,09,1.0,7.28,M,22.50,M,01,0090*68
$GPGGA,054015.20,3714.3873,N,12646.4038,E,2,09,1.0,7.28,M,22.50,M,01,0090*66
$GPGGA,054015.30,3714.3875,N,12646.4036,E,2,09,1.0,7.28,M,22.50,M,01,0090*6F
$GPGGA,054015.40,3714.3877,N,12646.4033,E,2,09,1.0,7.28,M,22.50,M,01,0090*6F
$GPGGA,054015.50,3714.3879,N,12646.4031,E,2,09,1.0,7.28,M,22.50,M,00,0090*63
$GPGGA,054015.60,3714.3880,N,12646.4028,E,2,09,1.0,7.27,M,22.50,M,00,0090*61
$GPGGA,054015.70,3714.3882,N,12646.4026,E,2,09,1.0,7.28,M,22.50,M,00,0090*63
$GPGGA,054015.80,3714.3884,N,12646.4023,E,2,09,1.0,7.28,M,22.50,M,00,0090*6F
$GPGGA,054015.90,3714.3885,N,12646.4020,E,2,09,1.0,7.28,M,22.50,M,00,0090*6C
$GPGGA,054016.00,3714.3887,N,12646.4017,E,2,09,1.0,7.28,M,22.50,M,01,0090*61
$GPGGA,054016.10,3714.3888,N,12646.4014,E,2,09,1.0,7.28,M,22.50,M,01,0090*6C
$GPGGA,054016.20,3714.3890,N,12646.4011,E,2,09,1.0,7.28,M,22.50,M,01,0090*63
$GPGGA,054016.30,3714.3891,N,12646.4008,E,2,09,1.0,7.21,M,22.50,M,01,0090*62
$GPGGA,054016.40,3714.3892,N,12646.4005,E,2,09,1.0,7.20,M,22.50,M,01,0090*6A
$GPGGA,054016.50,3714.3894,N,12646.4001,E,2,09,1.0,7.20,M,22.50,M,01,0090*69
$GPGGA,054016.60,3714.3895,N,12646.3998,E,2,09,1.0,7.20,M,22.50,M,00,0090*64
$GPGGA,054016.70,3714.3897,N,12646.3995,E,2,09,1.0,7.20,M,22.50,M,00,0090*6A
$GPGGA,054016.80,3714.3898,N,12646.3991,E,2,09,1.0,7.20,M,22.50,M,00,0090*6E
$GPGGA,054016.90,3714.3899,N,12646.3988,E,2,09,1.0,7.19,M,22.50,M,00,0090*6C
$GPGGA,054017.00,3714.3901,N,12646.3985,E,2,09,1.0,7.19,M,22.50,M,01,0090*68
$GPGGA,054017.10,3714.3902,N,12646.3981,E,2,09,1.0,7.18,M,22.50,M,01,0090*6F
$GPGGA,054017.20,3714.3904,N,12646.3977,E,2,09,1.0,7.19,M,22.50,M,01,0090*62
$GPGGA,054017.30,3714.3905,N,12646.3974,E,2,09,1.0,7.14,M,22.50,M,01,0090*6C
$GPGGA,054017.40,3714.3907,N,12646.3971,E,2,09,1.0,7.14,M,22.50,M,01,0090*6C
$GPGGA,054017.50,3714.3908,N,12646.3967,E,2,08,1.0,7.14,M,22.50,M,01,0090*64
$GPGGA,054017.60,3714.3910,N,12646.3963,E,2,08,1.0,7.13,M,22.50,M,00,0090*6C
$GPGGA,054017.70,3714.3911,N,12646.3960,E,2,08,1.0,7.13,M,22.50,M,00,0090*6F
$GPGGA,054017.80,3714.3913,N,12646.3956,E,2,08,1.0,7.13,M,22.50,M,00,0090*67
$GPGGA,054017.90,3714.3914,N,12646.3952,E,2,08,1.0,7.13,M,22.50,M,00,0090*65
$GPGGA,054018.00,3714.3916,N,12646.3948,E,2,08,1.0,7.13,M,22.50,M,01,0090*6B
$GPGGA,054018.10,3714.3917,N,12646.3944,E,2,08,1.0,7.12,M,22.50,M,01,0090*66
$GPGGA,054018.20,3714.3919,N,12646.3941,E,2,08,1.0,7.12,M,22.50,M,01,0090*6E
$GPGGA,054018.30,3714.3920,N,12646.3937,E,2,08,1.0,7.09,M,22.50,M,01,0090*6E
$GPGGA,054018.40,3714.3922,N,12646.3933,E,2,08,1.0,7.10,M,22.50,M,01,0090*67
$GPGGA,054018.50,3714.3923,N,12646.3929,E,2,08,1.0,7.08,M,22.50,M,01,0090*65
$GPGGA,054018.60,3714.3925,N,12646.3925,E,2,08,1.0,7.09,M,22.50,M,00,0090*6C
$GPGGA,054018.70,3714.3926,N,12646.3921,E,2,08,1.0,7.09,M,22.50,M,00,0090*6A
$GPGGA,054018.80,3714.3928,N,12646.3917,E,2,08,1.0,7.10,M,22.50,M,00,0090*66
$GPGGA,054018.90,3714.3929,N,12646.3914,E,2,08,1.0,7.09,M,22.50,M,00,0090*6D
$GPGGA,054019.00,3714.3931,N,12646.3910,E,2,08,1.0,7.09,M,22.50,M,01,0090*69
$GPGGA,054019.10,3714.3933,N,12646.3906,E,2,08,1.0,7.10,M,22.50,M,01,0090*65
$GPGGA,054019.20,3714.3934,N,12646.3902,E,2,08,1.0,7.11,M,22.50,M,01,0090*64
$GPGGA,054019.30,3714.3936,N,12646.3899,E,2,08,1.0,7.05,M,22.50,M,01,0090*61
$GPGGA,054019.40,3714.3938,N,12646.3895,E,2,08,1.0,7.05,M,22.50,M,01,0090*64
$GPGGA,054019.50,3714.3939,N,12646.3892,E,2,08,1.0,7.05,M,22.50,M,00,0090*62
$GPGGA,054019.60,3714.3941,N,12646.3888,E,2,08,1.0,7.06,M,22.50,M,00,0090*66
$GPGGA,054019.70,3714.3943,N,12646.3885,E,2,08,1.0,7.05,M,22.50,M,00,0090*6B
$GPGGA,054019.80,3714.3944,N,12646.3881,E,2,08,1.0,7.05,M,22.50,M,00,0090*67
$GPGGA,054019.90,3714.3946,N,12646.3878,E,2,08,1.0,7.06,M,22.50,M,00,0090*61
$GPGGA,054020.00,3714.3948,N,12646.3875,E,2,08,1.0,7.06,M,22.50,M,01,0090*60
$GPGGA,054020.10,3714.3950,N,12646.3872,E,2,08,1.0,7.06,M,22.50,M,01,0090*6F
$GPGGA,054020.20,3714.3952,N,12646.3868,E,2,09,1.0,7.07,M,22.50,M,01,0090*65
$GPGGA,054020.30,3714.3954,N,12646.3866,E,2,09,1.0,7.00,M,22.50,M,01,0090*6B
$GPGGA,054020.40,3714.3956,N,12646.3863,E,2,09,1.0,7.01,M,22.50,M,01,0090*6A
$GPGGA,054020.50,3714.3958,N,12646.3860,E,2,09,1.0,7.02,M,22.50,M,01,0090*65
$GPGGA,054020.60,3714.3960,N,12646.3857,E,2,09,1.0,7.02,M,22.50,M,01,0090*69
$GPGGA,054020.70,3714.3963,N,12646.3855,E,2,09,1.0,7.02,M,22.50,M,01,0090*69
$GPGGA,054020.80,3714.3965,N,12646.3852,E,2,09,1.0,7.03,M,22.50,M,01,0090*66
$GPGGA,054020.90,3714.3967,N,12646.3850,E,2,09,1.0,7.03,M,22.50,M,01,0090*67
$GPGGA,054021.00,3714.3969,N,12646.3848,E,2,09,1.0,7.04,M,22.50,M,02,0090*6C
$GPGGA,054021.10,3714.3972,N,12646.3845,E,2,09,1.0,7.03,M,22.50,M,02,0090*6D
$GPGGA,054021.20,3714.3974,N,12646.3843,E,2,09,1.0,7.03,M,22.50,M,02,0090*6E
$GPGGA,054021.30,3714.3977,N,12646.3842,E,2,09,1.0,7.04,M,22.50,M,02,0090*6A
$GPGGA,054021.40,3714.3979,N,12646.3840,E,2,09,1.0,7.03,M,22.50,M,02,0090*66
$GPGGA,054021.50,3714.3982,N,12646.3838,E,2,09,1.0,7.03,M,22.50,M,02,0090*6C
$GPGGA,054021.60,3714.3984,N,12646.3837,E,2,09,1.0,7.03,M,22.50,M,02,0090*66
$GPGGA,054021.70,3714.3987,N,12646.3836,E,2,09,1.0,7.03,M,22.50,M,01,0090*66
$GPGGA,054021.80,3714.3990,N,12646.3834,E,2,09,1.0,7.03,M,22.50,M,01,0090*6D
$GPGGA,054021.90,3714.3992,N,12646.3833,E,2,09,1.0,7.03,M,22.50,M,00,0090*68
$GPGGA,054022.00,3714.3995,N,12646.3832,E,2,09,1.0,7.03,M,22.50,M,01,0090*65
$GPGGA,054022.10,3714.3998,N,12646.3832,E,2,09,1.0,7.02,M,22.50,M,01,0090*68
$GPGGA,054022.20,3714.4000,N,12646.3831,E,2,09,1.0,7.02,M,22.50,M,01,0090*67
$GPGGA,054022.30,3714.4003,N,12646.3830,E,2,09,1.0,7.05,M,22.50,M,01,0090*63
$GPGGA,054022.40,3714.4006,N,12646.3830,E,2,09,1.0,7.05,M,22.50,M,01,0090*61
$GPGGA,054022.50,3714.4009,N,12646.3830,E,2,09,1.0,7.04,M,22.50,M,00,0090*6F
$GPGGA,054022.60,3714.4011,N,12646.3830,E,2,09,1.0,7.04,M,22.50,M,00,0090*65
$GPGGA,054022.70,3714.4014,N,12646.3830,E,2,09,1.0,7.04,M,22.50,M,00,0090*61
$GPGGA,054022.80,3714.4017,N,12646.3830,E,2,09,1.0,7.04,M,22.50,M,00,0090*6D
$GPGGA,054022.90,3714.4020,N,12646.3830,E,2,09,1.0,7.04,M,22.50,M,00,0090*68
$GPGGA,054023.00,3714.4022,N,12646.3831,E,2,09,1.0,7.04,M,22.50,M,01,0090*62
$GPGGA,054023.10,3714.4025,N,12646.3831,E,2,09,1.0,7.04,M,22.50,M,01,0090*64
$GPGGA,054023.20,3714.4028,N,12646.3832,E,2,09,1.0,7.04,M,22.50,M,01,0090*69
$GPGGA,054023.30,3714.4030,N,12646.3833,E,2,09,1.0,6.98,M,22.50,M,01,0090*64
$GPGGA,054023.40,3714.4033,N,12646.3834,E,2,09,1.0,6.98,M,22.50,M,01,0090*67
$GPGGA,054023.50,3714.4036,N,12646.3835,E,2,09,1.0,6.98,M,22.50,M,00,0090*63
$GPGGA,054023.60,3714.4039,N,12646.3836,E,2,09,1.0,6.98,M,22.50,M,00,0090*6C
$GPGGA,054023.70,3714.4041,N,12646.3837,E,2,09,1.0,6.98,M,22.50,M,00,0090*63
$GPGGA,054023.80,3714.4044,N,12646.3839,E,2,09,1.0,6.97,M,22.50,M,00,0090*68
$GPGGA,054023.90,3714.4047,N,12646.3840,E,2,09,1.0,6.97,M,22.50,M,00,0090*64
$GPGGA,054024.00,3714.4049,N,12646.3841,E,2,09,1.0,6.98,M,22.50,M,01,0090*6B
$GPGGA,054024.10,3714.4052,N,12646.3843,E,2,09,1.0,6.98,M,22.50,M,01,0090*62
$GPGGA,054024.20,3714.4055,N,12646.3844,E,2,09,1.0,6.98,M,22.50,M,01,0090*61
$GPGGA,054024.30,3714.4058,N,12646.3846,E,2,09,1.0,6.99,M,22.50,M,01,0090*6E
$GPGGA,054024.40,3714.4060,N,12646.3848,E,2,09,1.0,6.99,M,22.50,M,01,0090*6C
$GPGGA,054024.50,3714.4063,N,12646.3849,E,2,09,1.0,6.99,M,22.50,M,01,0090*6F
$GPGGA,054024.60,3714.4066,N,12646.3851,E,2,09,1.0,6.99,M,22.50,M,00,0090*61
$GPGGA,054024.70,3714.4068,N,12646.3853,E,2,09,1.0,6.99,M,22.50,M,00,0090*6C
$GPGGA,054024.80,3714.4071,N,12646.3855,E,2,09,1.0,7.00,M,22.50,M,00,0090*6C
$GPGGA,054024.90,3714.4074,N,12646.3856,E,2,09,1.0,6.99,M,22.50,M,00,0090*6A
$GPGGA,054025.00,3714.4077,N,12646.3858,E,2,09,1.0,6.99,M,22.50,M,01,0090*6E
$GPGGA,054025.10,3714.4079,N,12646.3860,E,2,09,1.0,6.99,M,22.50,M,01,0090*6A
$GPGGA,054025.20,3714.4082,N,12646.3862,E,2,09,1.0,7.00,M,22.50,M,01,0090*6E
$GPGGA,054025.30,3714.4085,N,12646.3864,E,2,09,1.0,7.00,M,22.50,M,01,0090*6E
$GPGGA,054025.40,3714.4088,N,12646.3865,E,2,09,1.0,7.00,M,22.50,M,01,0090*65
$GPGGA,054025.50,3714.4090,N,12646.3867,E,2,09,1.0,7.00,M,22.50,M,01,0090*6F
$GPGGA,054025.60,3714.4093,N,12646.3869,E,2,09,1.0,7.00,M,22.50,M,00,0090*60
$GPGGA,054025.70,3714.4096,N,12646.3871,E,2,09,1.0,7.00,M,22.50,M,00,0090*6D
$GPGGA,054025.80,3714.4099,N,12646.3873,E,2,09,1.0,7.00,M,22.50,M,00,0090*6F
$GPGGA,054025.90,3714.4101,N,12646.3875,E,2,09,1.0,7.00,M,22.50,M,00,0090*68
$GPGGA,054026.00,3714.4104,N,12646.3877,E,2,09,1.0,7.01,M,22.50,M,01,0090*65
$GPGGA,054026.10,3714.4107,N,12646.3878,E,2,09,1.0,7.00,M,22.50,M,01,0090*69
$GPGGA,054026.20,3714.4109,N,12646.3880,E,2,09,1.0,7.00,M,22.50,M,01,0090*63
$GPGGA,054026.30,3714.4112,N,12646.3882,E,2,09,1.0,7.00,M,22.50,M,01,0090*6A
$GPGGA,054026.40,3714.4114,N,12646.3884,E,2,09,1.0,6.99,M,22.50,M,01,0090*6C
$GPGGA,054026.50,3714.4117,N,12646.3886,E,2,09,1.0,7.00,M,22.50,M,01,0090*6D
$GPGGA,054026.60,3714.4120,N,12646.3887,E,2,09,1.0,7.00,M,22.50,M,00,0090*6A
$GPGGA,054026.70,3714.4122,N,12646.3889,E,2,09,1.0,7.00,M,22.50,M,00,0090*67
$GPGGA,054026.80,3714.4125,N,12646.3891,E,2,09,1.0,7.01,M,22.50,M,00,0090*67
$GPGGA,054026.90,3714.4127,N,12646.3893,E,2,09,1.0,7.00,M,22.50,M,00,0090*67
$GPGGA,054027.00,3714.4130,N,12646.3894,E,2,09,1.0,7.01,M,22.50,M,01,0090*6E
$GPGGA,054027.10,3714.4132,N,12646.3896,E,2,09,1.0,7.01,M,22.50,M,01,0090*6F
$GPGGA,054027.20,3714.4135,N,12646.3898,E,2,09,1.0,7.01,M,22.50,M,01,0090*65
$GPGGA,054027.30,3714.4137,N,12646.3900,E,2,09,1.0,7.02,M,22.50,M,01,0090*65
$GPGGA,054027.40,3714.4139,N,12646.3901,E,2,09,1.0,7.02,M,22.50,M,01,0090*6D
$GPGGA,054027.50,3714.4142,N,12646.3903,E,2,09,1.0,7.03,M,22.50,M,01,0090*63
$GPGGA,054027.60,3714.4144,N,12646.3904,E,2,09,1.0,7.04,M,22.50,M,01,0090*66
$GPGGA,054027.70,3714.4146,N,12646.3906,E,2,09,1.0,7.05,M,22.50,M,01,0090*66
$GPGGA,054027.80,3714.4149,N,12646.3908,E,2,09,1.0,7.04,M,22.50,M,00,0090*68
$GPGGA,054027.90,3714.4151,N,12646.3909,E,2,09,1.0,7.05,M,22.50,M,00,0090*60
$GPGGA,054028.00,3714.4153,N,12646.3911,E,2,09,1.0,7.09,M,22.50,M,01,0090*60
$GPGGA,054028.10,3714.4156,N,12646.3912,E,2,09,1.0,7.11,M,22.50,M,01,0090*6E
$GPGGA,054028.20,3714.4158,N,12646.3914,E,2,09,1.0,7.12,M,22.50,M,01,0090*66
$GPGGA,054028.30,3714.4160,N,12646.3915,E,2,09,1.0,7.05,M,22.50,M,01,0090*6B
$GPGGA,054028.40,3714.4162,N,12646.3917,E,2,09,1.0,7.04,M,22.50,M,01,0090*6D
$GPGGA,054028.50,3714.4165,N,12646.3918,E,2,09,1.0,7.03,M,22.50,M,01,0090*63
$GPGGA,054028.60,3714.4167,N,12646.3920,E,2,09,1.0,7.03,M,22.50,M,01,0090*69
$GPGGA,054028.70,3714.4169,N,12646.3921,E,2,09,1.0,7.04,M,22.50,M,00,0090*61
$GPGGA,054028.80,3714.4171,N,12646.3923,E,2,09,1.0,7.04,M,22.50,M,00,0090*65
$GPGGA,054028.90,3714.4173,N,12646.3924,E,2,09,1.0,7.03,M,22.50,M,00,0090*66
$GPGGA,054029.00,3714.4176,N,12646.3926,E,2,09,1.0,7.04,M,22.50,M,01,0090*6F
$GPGGA,054029.10,3714.4178,N,12646.3927,E,2,09,1.0,7.03,M,22.50,M,01,0090*66
$GPGGA,054029.20,3714.4180,N,12646.3929,E,2,09,1.0,7.04,M,22.50,M,01,0090*6B
$GPGGA,054029.30,3714.4182,N,12646.3930,E,2,09,1.0,7.02,M,22.50,M,01,0090*66
$GPGGA,054029.40,3714.4184,N,12646.3932,E,2,09,1.0,7.03,M,22.50,M,01,0090*64
$GPGGA,054029.50,3714.4187,N,12646.3933,E,2,09,1.0,7.02,M,22.50,M,01,0090*66
$GPGGA,054029.60,3714.4189,N,12646.3935,E,2,09,1.0,7.02,M,22.50,M,01,0090*6D
$GPGGA,054029.70,3714.4191,N,12646.3936,E,2,09,1.0,7.03,M,22.50,M,01,0090*67
$GPGGA,054029.80,3714.4193,N,12646.3938,E,2,09,1.0,7.03,M,22.50,M,01,0090*64
$GPGGA,054029.90,3714.4196,N,12646.3939,E,2,09,1.0,7.03,M,22.50,M,01,0090*61
$GPGGA,054030.00,3714.4198,N,12646.3941,E,2,09,1.0,7.04,M,22.50,M,02,0090*65
$GPGGA,054030.10,3714.4200,N,12646.3942,E,2,09,1.0,7.04,M,22.50,M,02,0090*65
$GPGGA,054030.20,3714.4203,N,12646.3944,E,2,09,1.0,7.04,M,22.50,M,02,0090*63
$GPGGA,054030.30,3714.4206,N,12646.3945,E,2,09,1.0,7.03,M,22.50,M,02,0090*61
$GPGGA,054030.40,3714.4208,N,12646.3947,E,2,09,1.0,7.03,M,22.50,M,02,0090*6A
$GPGGA,054030.50,3714.4211,N,12646.3949,E,2,09,1.0,7.03,M,22.50,M,02,0090*6D
$GPGGA,054030.60,3714.4213,N,12646.3951,E,2,09,1.0,7.03,M,22.50,M,02,0090*65
$GPGGA,054030.70,3714.4216,N,12646.3952,E,2,09,1.0,7.04,M,22.50,M,01,0090*66
$GPGGA,054030.80,3714.4219,N,12646.3954,E,2,09,1.0,7.03,M,22.50,M,01,0090*67
$GPGGA,054030.90,3714.4222,N,12646.3956,E,2,09,1.0,7.03,M,22.50,M,00,0090*6D
$GPGGA,054031.00,3714.4225,N,12646.3958,E,2,09,1.0,7.03,M,22.50,M,01,0090*6D
$GPGGA,054031.10,3714.4227,N,12646.3960,E,2,09,1.0,7.02,M,22.50,M,01,0090*64
$GPGGA,054031.20,3714.4230,N,12646.3962,E,2,09,1.0,7.02,M,22.50,M,01,0090*63
$GPGGA,054031.30,3714.4233,N,12646.3964,E,2,09,1.0,7.02,M,22.50,M,01,0090*67
$GPGGA,054031.40,3714.4236,N,12646.3966,E,2,09,1.0,7.02,M,22.50,M,01,0090*67
$GPGGA,054031.50,3714.4239,N,12646.3967,E,2,09,1.0,7.02,M,22.50,M,01,0090*68
$GPGGA,054031.60,3714.4242,N,12646.3969,E,2,09,1.0,7.03,M,22.50,M,00,0090*69
$GPGGA,054031.70,3714.4245,N,12646.3971,E,2,09,1.0,7.03,M,22.50,M,00,0090*66
$GPGGA,054031.80,3714.4248,N,12646.3973,E,2,09,1.0,7.02,M,22.50,M,00,0090*67
$GPGGA,054031.90,3714.4251,N,12646.3975,E,2,09,1.0,7.02,M,22.50,M,00,0090*68
$GPGGA,054032.00,3714.4254,N,12646.3977,E,2,09,1.0,7.02,M,22.50,M,01,0090*64
$GPGGA,054032.10,3714.4258,N,12646.3979,E,2,09,1.0,7.01,M,22.50,M,01,0090*64
$GPGGA,054032.20,3714.4261,N,12646.3981,E,2,09,1.0,7.01,M,22.50,M,01,0090*6A
$GPGGA,054032.30,3714.4264,N,12646.3983,E,2,09,1.0,6.97,M,22.50,M,01,0090*62
$GPGGA,054032.40,3714.4267,N,12646.3985,E,2,09,1.0,6.97,M,22.50,M,01,0090*60
$GPGGA,054032.50,3714.4270,N,12646.3988,E,2,09,1.0,6.95,M,22.50,M,00,0090*69
$GPGGA,054032.60,3714.4274,N,12646.3990,E,2,09,1.0,6.95,M,22.50,M,00,0090*67
$GPGGA,054032.70,3714.4277,N,12646.3992,E,2,09,1.0,6.94,M,22.50,M,00,0090*66
$GPGGA,054032.80,3714.4280,N,12646.3994,E,2,09,1.0,6.89,M,22.50,M,00,0090*6B
$GPGGA,054032.90,3714.4283,N,12646.3996,E,2,09,1.0,6.88,M,22.50,M,00,0090*6A
$GPGGA,054033.00,3714.4287,N,12646.3998,E,2,09,1.0,6.90,M,22.50,M,01,0090*60
$GPGGA,054033.10,3714.4290,N,12646.4000,E,2,09,1.0,6.90,M,22.50,M,01,0090*68
$GPGGA,054033.20,3714.4294,N,12646.4002,E,2,09,1.0,6.90,M,22.50,M,01,0090*6D
$GPGGA,054033.30,3714.4297,N,12646.4004,E,2,09,1.0,6.89,M,22.50,M,01,0090*61
$GPGGA,054033.40,3714.4300,N,12646.4006,E,2,09,1.0,6.88,M,22.50,M,01,0090*6A
$GPGGA,054033.50,3714.4304,N,12646.4008,E,2,09,1.0,6.88,M,22.50,M,01,0090*61
$GPGGA,054033.60,3714.4307,N,12646.4010,E,2,09,1.0,6.89,M,22.50,M,01,0090*69
$GPGGA,054033.70,3714.4311,N,12646.4013,E,2,09,1.0,6.88,M,22.50,M,01,0090*6D
$GPGGA,054033.80,3714.4314,N,12646.4015,E,2,09,1.0,6.88,M,22.50,M,01,0090*61
$GPGGA,054033.90,3714.4317,N,12646.4017,E,2,09,1.0,6.87,M,22.50,M,01,0090*6E
$GPGGA,054034.00,3714.4321,N,12646.4019,E,2,09,1.0,6.88,M,22.50,M,02,0090*67
$GPGGA,054034.10,3714.4324,N,12646.4021,E,2,09,1.0,6.88,M,22.50,M,02,0090*68
$GPGGA,054034.20,3714.4328,N,12646.4024,E,2,09,1.0,6.88,M,22.50,M,02,0090*62
$GPGGA,054034.30,3714.4331,N,12646.4026,E,2,09,1.0,6.87,M,22.50,M,02,0090*66
$GPGGA,054034.40,3714.4334,N,12646.4028,E,2,09,1.0,6.87,M,22.50,M,02,0090*6A
$GPGGA,054034.50,3714.4338,N,12646.4030,E,2,09,1.0,6.87,M,22.50,M,01,0090*6D
$GPGGA,054034.60,3714.4341,N,12646.4032,E,2,09,1.0,6.87,M,22.50,M,01,0090*62
$GPGGA,054034.70,3714.4344,N,12646.4035,E,2,09,1.0,6.87,M,22.50,M,00,0090*60
$GPGGA,054034.80,3714.4348,N,12646.4037,E,2,09,1.0,6.87,M,22.50,M,00,0090*61
$GPGGA,054034.90,3714.4351,N,12646.4039,E,2,09,1.0,6.88,M,22.50,M,00,0090*69
$GPGGA,054035.00,3714.4354,N,12646.4042,E,2,09,1.0,6.88,M,22.50,M,01,0090*69
$GPGGA,054035.10,3714.4357,N,12646.4044,E,2,09,1.0,6.89,M,22.50,M,01,0090*6C
$GPGGA,054035.20,3714.4361,N,12646.4046,E,2,09,1.0,6.88,M,22.50,M,01,0090*69
$GPGGA,054035.30,3714.4364,N,12646.4049,E,2,09,1.0,6.83,M,22.50,M,01,0090*69
$GPGGA,054035.40,3714.4367,N,12646.4051,E,2,09,1.0,6.83,M,22.50,M,01,0090*64
$GPGGA,054035.50,3714.4370,N,12646.4054,E,2,09,1.0,6.83,M,22.50,M,01,0090*66
$GPGGA,054035.60,3714.4373,N,12646.4056,E,2,09,1.0,6.84,M,22.50,M,01,0090*63
$GPGGA,054035.70,3714.4376,N,12646.4059,E,2,09,1.0,6.84,M,22.50,M,01,0090*68
$GPGGA,054035.80,3714.4379,N,12646.4062,E,2,09,1.0,6.84,M,22.50,M,00,0090*61
$GPGGA,054035.90,3714.4381,N,12646.4064,E,2,09,1.0,6.84,M,22.50,M,00,0090*61
$GPGGA,054036.00,3714.4384,N,12646.4067,E,2,09,1.0,6.85,M,22.50,M,01,0090*6D
$GPGGA,054036.10,3714.4387,N,12646.4070,E,2,09,1.0,6.85,M,22.50,M,01,0090*69
$GPGGA,054036.20,3714.4390,N,12646.4072,E,2,09,1.0,6.85,M,22.50,M,01,0090*6E
$GPGGA,054036.30,3714.4392,N,12646.4075,E,2,09,1.0,6.85,M,22.50,M,01,0090*6A
$GPGGA,054036.40,3714.4395,N,12646.4078,E,2,09,1.0,6.85,M,22.50,M,01,0090*67
$GPGGA,054036.50,3714.4397,N,12646.4081,E,2,09,1.0,6.86,M,22.50,M,01,0090*61
$GPGGA,054036.60,3714.4399,N,12646.4084,E,2,09,1.0,6.86,M,22.50,M,01,0090*69
$GPGGA,054036.70,3714.4401,N,12646.4087,E,2,09,1.0,6.86,M,22.50,M,00,0090*6C
$GPGGA,054036.80,3714.4403,N,12646.4090,E,2,09,1.0,6.87,M,22.50,M,00,0090*66
$GPGGA,054036.90,3714.4405,N,12646.4093,E,2,09,1.0,6.87,M,22.50,M,00,0090*62
$GPGGA,054037.00,3714.4407,N,12646.4097,E,2,09,1.0,6.87,M,22.50,M,01,0090*6D
$GPGGA,054037.10,3714.4409,N,12646.4100,E,2,09,1.0,6.87,M,22.50,M,01,0090*6D
$GPGGA,054037.20,3714.4410,N,12646.4103,E,2,09,1.0,6.87,M,22.50,M,01,0090*65
$GPGGA,054037.30,3714.4412,N,12646.4106,E,2,09,1.0,6.84,M,22.50,M,01,0090*60
$GPGGA,054037.40,3714.4413,N,12646.4110,E,2,09,1.0,6.83,M,22.50,M,01,0090*66
$GPGGA,054037.50,3714.4414,N,12646.4113,E,2,09,1.0,6.83,M,22.50,M,01,0090*63
$GPGGA,054037.60,3714.4415,N,12646.4117,E,2,09,1.0,6.83,M,22.50,M,01,0090*65
$GPGGA,054037.70,3714.4416,N,12646.4120,E,2,09,1.0,6.82,M,22.50,M,01,0090*62
$GPGGA,054037.80,3714.4417,N,12646.4123,E,2,09,1.0,6.82,M,22.50,M,00,0090*6E
$GPGGA,054037.90,3714.4417,N,12646.4127,E,2,09,1.0,6.82,M,22.50,M,00,0090*6B
$GPGGA,054038.00,3714.4418,N,12646.4130,E,2,09,1.0,6.81,M,22.50,M,01,0090*66
$GPGGA,054038.10,3714.4418,N,12646.4134,E,2,09,1.0,6.81,M,22.50,M,01,0090*63
$GPGGA,054038.20,3714.4418,N,12646.4137,E,2,09,1.0,6.80,M,22.50,M,01,0090*62
$GPGGA,054038.30,3714.4418,N,12646.4141,E,2,09,1.0,6.78,M,22.50,M,01,0090*65
$GPGGA,054038.40,3714.4418,N,12646.4144,E,2,09,1.0,6.78,M,22.50,M,01,0090*67
$GPGGA,054038.50,3714.4418,N,12646.4148,E,2,09,1.0,6.77,M,22.50,M,00,0090*64
$GPGGA,054038.60,3714.4417,N,12646.4151,E,2,09,1.0,6.77,M,22.50,M,00,0090*60
$GPGGA,054038.70,3714.4417,N,12646.4155,E,2,09,1.0,6.77,M,22.50,M,00,0090*65
$GPGGA,054038.80,3714.4416,N,12646.4158,E,2,09,1.0,6.77,M,22.50,M,00,0090*66
$GPGGA,054038.90,3714.4416,N,12646.4161,E,2,09,1.0,6.77,M,22.50,M,00,0090*6D
$GPGGA,054039.00,3714.4415,N,12646.4165,E,2,09,1.0,6.76,M,22.50,M,01,0090*62
$GPGGA,054039.10,3714.4414,N,12646.4168,E,2,09,1.0,6.76,M,22.50,M,01,0090*6F
$GPGGA,054039.20,3714.4413,N,12646.4171,E,2,09,1.0,6.76,M,22.50,M,01,0090*63
$GPGGA,054039.30,3714.4412,N,12646.4175,E,2,09,1.0,6.76,M,22.50,M,01,0090*67
$GPGGA,054039.40,3714.4411,N,12646.4178,E,2,09,1.0,6.76,M,22.50,M,01,0090*6E
$GPGGA,054039.50,3714.4410,N,12646.4182,E,2,09,1.0,6.75,M,22.50,M,01,0090*68
$GPGGA,054039.60,3714.4408,N,12646.4185,E,2,09,1.0,6.75,M,22.50,M,01,0090*65
$GPGGA,054039.70,3714.4407,N,12646.4188,E,2,09,1.0,6.76,M,22.50,M,00,0090*64
$GPGGA,054039.80,3714.4406,N,12646.4192,E,2,09,1.0,6.76,M,22.50,M,00,0090*61
$GPGGA,054039.90,3714.4404,N,12646.4195,E,2,09,1.0,6.76,M,22.50,M,00,0090*65
$GPGGA,054040.00,3714.4403,N,12646.4198,E,2,09,1.0,6.76,M,22.50,M,01,0090*69
$GPGGA,054040.10,3714.4402,N,12646.4202,E,2,09,1.0,6.75,M,22.50,M,01,0090*6A
$GPGGA,054040.20,3714.4400,N,12646.4205,E,2,09,1.0,6.76,M,22.50,M,01,0090*6F
$GPGGA,054040.30,3714.4399,N,12646.4208,E,2,09,1.0,6.71,M,22.50,M,01,0090*63
$GPGGA,054040.40,3714.4397,N,12646.4212,E,2,09,1.0,6.72,M,22.50,M,01,0090*62
$GPGGA,054040.50,3714.4396,N,12646.4215,E,2,09,1.0,6.72,M,22.50,M,01,0090*65
$GPGGA,054040.60,3714.4395,N,12646.4218,E,2,09,1.0,6.72,M,22.50,M,00,0090*69
$GPGGA,054040.70,3714.4393,N,12646.4222,E,2,09,1.0,6.71,M,22.50,M,00,0090*64
$GPGGA,054040.80,3714.4392,N,12646.4225,E,2,09,1.0,6.71,M,22.50,M,00,0090*6D
$GPGGA,054040.90,3714.4390,N,12646.4228,E,2,09,1.0,6.71,M,22.50,M,00,0090*63
$GPGGA,054041.00,3714.4389,N,12646.4232,E,2,09,1.0,6.72,M,22.50,M,01,0090*6A
$GPGGA,054041.10,3714.4387,N,12646.4235,E,2,09,1.0,6.71,M,22.50,M,01,0090*61
$GPGGA,054041.20,3714.4386,N,12646.4239,E,2,09,1.0,6.71,M,22.50,M,01,0090*6F
$GPGGA,054041.30,3714.4384,N,12646.4242,E,2,09,1.0,6.67,M,22.50,M,01,0090*67
$GPGGA,054041.40,3714.4383,N,12646.4246,E,2,09,1.0,6.67,M,22.50,M,01,0090*63
$GPGGA,054041.50,3714.4381,N,12646.4250,E,2,09,1.0,6.67,M,22.50,M,01,0090*67
$GPGGA,054041.60,3714.4380,N,12646.4253,E,2,09,1.0,6.66,M,22.50,M,00,0090*66
$GPGGA,054041.70,3714.4378,N,12646.4257,E,2,09,1.0,6.66,M,22.50,M,00,0090*64
$GPGGA,054041.80,3714.4377,N,12646.4261,E,2,09,1.0,6.66,M,22.50,M,00,0090*61
$GPGGA,054041.90,3714.4375,N,12646.4264,E,2,09,1.0,6.66,M,22.50,M,00,0090*67
$GPGGA,054042.00,3714.4374,N,12646.4268,E,2,09,1.0,6.66,M,22.50,M,01,0090*61
$GPGGA,054042.10,3714.4372,N,12646.4272,E,2,09,1.0,6.65,M,22.50,M,01,0090*6E
$GPGGA,054042.20,3714.4370,N,12646.4276,E,2,09,1.0,6.64,M,22.50,M,01,0090*6A
$GPGGA,054042.30,3714.4369,N,12646.4279,E,2,09,1.0,6.62,M,22.50,M,01,0090*6A
$GPGGA,054042.40,3714.4367,N,12646.4283,E,2,09,1.0,6.63,M,22.50,M,01,0090*67
$GPGGA,054042.50,3714.4365,N,12646.4287,E,2,09,1.0,6.62,M,22.50,M,01,0090*61
$GPGGA,054042.60,3714.4364,N,12646.4291,E,2,09,1.0,6.62,M,22.50,M,01,0090*64
$GPGGA,054042.70,3714.4362,N,12646.4295,E,2,09,1.0,6.61,M,22.50,M,01,0090*64
$GPGGA,054042.80,3714.4360,N,12646.4299,E,2,09,1.0,6.62,M,22.50,M,00,0090*67
$GPGGA,054042.90,3714.4359,N,12646.4303,E,2,09,1.0,6.61,M,22.50,M,00,0090*6D
$GPGGA,054043.00,3714.4357,N,12646.4307,E,2,09,1.0,6.61,M,22.50,M,01,0090*6E
$GPGGA,054043.10,3714.4355,N,12646.4311,E,2,09,1.0,6.62,M,22.50,M,01,0090*69
$GPGGA,054043.20,3714.4354,N,12646.4315,E,2,09,1.0,6.62,M,22.50,M,01,0090*6F
$GPGGA,054043.30,3714.4352,N,12646.4319,E,2,09,1.0,6.62,M,22.50,M,01,0090*64
$GPGGA,054043.40,3714.4350,N,12646.4323,E,2,09,1.0,6.63,M,22.50,M,01,0090*69
$GPGGA,054043.50,3714.4348,N,12646.4327,E,2,09,1.0,6.64,M,22.50,M,01,0090*62
$GPGGA,054043.60,3714.4347,N,12646.4331,E,2,09,1.0,6.63,M,22.50,M,01,0090*6E
$GPGGA,054043.70,3714.4345,N,12646.4335,E,2,09,1.0,6.64,M,22.50,M,01,0090*6E
$GPGGA,054043.80,3714.4343,N,12646.4339,E,2,09,1.0,6.63,M,22.50,M,00,0090*6D
$GPGGA,054043.90,3714.4341,N,12646.4343,E,2,09,1.0,6.65,M,22.50,M,00,0090*65
$GPGGA,054044.00,3714.4340,N,12646.4348,E,2,09,1.0,6.66,M,22.50,M,01,0090*63
$GPGGA,054044.10,3714.4338,N,12646.4352,E,2,09,1.0,6.65,M,22.50,M,01,0090*65
$GPGGA,054044.20,3714.4336,N,12646.4356,E,2,09,1.0,6.67,M,22.50,M,01,0090*6E
$GPGGA,054044.30,3714.4334,N,12646.4360,E,2,09,1.0,6.70,M,22.50,M,01,0090*6E
$GPGGA,054044.40,3714.4333,N,12646.4364,E,2,09,1.0,6.69,M,22.50,M,01,0090*62
$GPGGA,054044.50,3714.4331,N,12646.4369,E,2,09,1.0,6.71,M,22.50,M,01,0090*65
$GPGGA,054044.60,3714.4329,N,12646.4373,E,2,09,1.0,6.72,M,22.50,M,00,0090*66
$GPGGA,054044.70,3714.4327,N,12646.4377,E,2,09,1.0,6.72,M,22.50,M,00,0090*6D
$GPGGA,054044.80,3714.4325,N,12646.4381,E,2,09,1.0,6.72,M,22.50,M,00,0090*69
$GPGGA,054044.90,3714.4324,N,12646.4385,E,2,09,1.0,6.72,M,22.50,M,00,0090*6D
$GPGGA,054045.00,3714.4322,N,12646.4390,E,2,09,1.0,6.72,M,22.50,M,01,0090*66
$GPGGA,054045.10,3714.4320,N,12646.4394,E,2,09,1.0,6.72,M,22.50,M,01,0090*61
$GPGGA,054045.20,3714.4318,N,12646.4398,E,2,09,1.0,6.72,M,22.50,M,01,0090*65
$GPGGA,054045.30,3714.4316,N,12646.4403,E,2,09,1.0,6.70,M,22.50,M,01,0090*6D
$GPGGA,054045.40,3714.4314,N,12646.4407,E,2,09,1.0,6.70,M,22.50,M,01,0090*6C
$GPGGA,054045.50,3714.4313,N,12646.4411,E,2,09,1.0,6.69,M,22.50,M,01,0090*65
$GPGGA,054045.60,3714.4311,N,12646.4416,E,2,09,1.0,6.68,M,22.50,M,01,0090*62
$GPGGA,054045.70,3714.4309,N,12646.4420,E,2,09,1.0,6.69,M,22.50,M,00,0090*6F
$GPGGA,054045.80,3714.4307,N,12646.4424,E,2,09,1.0,6.67,M,22.50,M,00,0090*64
$GPGGA,054045.90,3714.4305,N,12646.4428,E,2,09,1.0,6.70,M,22.50,M,00,0090*6D
$GPGGA,054046.00,3714.4303,N,12646.4433,E,2,09,1.0,6.70,M,22.50,M,01,0090*6A
$GPGGA,054046.10,3714.4302,N,12646.4437,E,2,09,1.0,6.71,M,22.50,M,01,0090*6F
$GPGGA,054046.20,3714.4300,N,12646.4442,E,2,09,1.0,6.70,M,22.50,M,01,0090*6D
$GPGGA,054046.30,3714.4298,N,12646.4446,E,2,09,1.0,6.72,M,22.50,M,01,0090*6A
$GPGGA,054046.40,3714.4296,N,12646.4451,E,2,09,1.0,6.74,M,22.50,M,01,0090*63
$GPGGA,054046.50,3714.4294,N,12646.4455,E,2,09,1.0,6.73,M,22.50,M,01,0090*63
$GPGGA,054046.60,3714.4292,N,12646.4460,E,2,09,1.0,6.73,M,22.50,M,01,0090*60
$GPGGA,054046.70,3714.4290,N,12646.4464,E,2,09,1.0,6.73,M,22.50,M,00,0090*66
$GPGGA,054046.80,3714.4289,N,12646.4469,E,2,09,1.0,6.74,M,22.50,M,00,0090*6B
$GPGGA,054046.90,3714.4287,N,12646.4473,E,2,09,1.0,6.73,M,22.50,M,00,0090*68
$GPGGA,054047.00,3714.4285,N,12646.4478,E,2,09,1.0,6.73,M,22.50,M,01,0090*68
$GPGGA,054047.10,3714.4283,N,12646.4482,E,2,09,1.0,6.74,M,22.50,M,01,0090*6D
$GPGGA,054047.20,3714.4281,N,12646.4487,E,2,09,1.0,6.74,M,22.50,M,01,0090*69
$GPGGA,054047.30,3714.4279,N,12646.4492,E,2,09,1.0,6.73,M,22.50,M,01,0090*6C
$GPGGA,054047.40,3714.4277,N,12646.4496,E,2,09,1.0,6.73,M,22.50,M,01,0090*61
$GPGGA,054047.50,3714.4276,N,12646.4501,E,2,09,1.0,6.73,M,22.50,M,01,0090*6E
$GPGGA,054047.60,3714.4274,N,12646.4505,E,2,09,1.0,6.73,M,22.50,M,01,0090*6B
$GPGGA,054047.70,3714.4272,N,12646.4510,E,2,09,1.0,6.73,M,22.50,M,00,0090*69
$GPGGA,054047.80,3714.4270,N,12646.4514,E,2,09,1.0,6.72,M,22.50,M,00,0090*61
$GPGGA,054047.90,3714.4268,N,12646.4519,E,2,09,1.0,6.73,M,22.50,M,00,0090*65
$GPGGA,054048.00,3714.4266,N,12646.4523,E,2,09,1.0,6.72,M,22.50,M,01,0090*64
$GPGGA,054048.10,3714.4264,N,12646.4528,E,2,09,1.0,6.73,M,22.50,M,01,0090*6D
$GPGGA,054048.20,3714.4262,N,12646.4532,E,2,09,1.0,6.72,M,22.50,M,01,0090*62
$GPGGA,054048.30,3714.4261,N,12646.4537,E,2,09,1.0,6.67,M,22.50,M,01,0090*61
$GPGGA,054048.40,3714.4259,N,12646.4541,E,2,09,1.0,6.68,M,22.50,M,01,0090*63
$GPGGA,054048.50,3714.4257,N,12646.4546,E,2,09,1.0,6.68,M,22.50,M,01,0090*6B
$GPGGA,054048.60,3714.4255,N,12646.4550,E,2,09,1.0,6.68,M,22.50,M,00,0090*6C
$GPGGA,054048.70,3714.4253,N,12646.4554,E,2,09,1.0,6.68,M,22.50,M,00,0090*6F
$GPGGA,054048.80,3714.4251,N,12646.4559,E,2,09,1.0,6.67,M,22.50,M,00,0090*60
$GPGGA,054048.90,3714.4249,N,12646.4563,E,2,09,1.0,6.68,M,22.50,M,00,0090*6E
$GPGGA,054049.00,3714.4248,N,12646.4567,E,2,09,1.0,6.68,M,22.50,M,01,0090*62
$GPGGA,054049.10,3714.4246,N,12646.4571,E,2,09,1.0,6.68,M,22.50,M,01,0090*6A
$GPGGA,054049.20,3714.4244,N,12646.4575,E,2,09,1.0,6.68,M,22.50,M,01,0090*6F
$GPGGA,054049.30,3714.4242,N,12646.4579,E,2,09,1.0,6.65,M,22.50,M,01,0090*69
$GPGGA,054049.40,3714.4240,N,12646.4583,E,2,09,1.0,6.65,M,22.50,M,01,0090*69
$GPGGA,054049.50,3714.4238,N,12646.4587,E,2,09,1.0,6.65,M,22.50,M,01,0090*63
$GPGGA,054049.60,3714.4236,N,12646.4591,E,2,09,1.0,6.65,M,22.50,M,00,0090*68
$GPGGA,054049.70,3714.4234,N,12646.4595,E,2,09,1.0,6.64,M,22.50,M,00,0090*6E
$GPGGA,054049.80,3714.4232,N,12646.4598,E,2,09,1.0,6.64,M,22.50,M,00,0090*6A
$GPGGA,054049.90,3714.4230,N,12646.4602,E,2,09,1.0,6.64,M,22.50,M,00,0090*69
$GPGGA,054050.00,3714.4228,N,12646.4605,E,2,09,1.0,6.64,M,22.50,M,01,0090*67
$GPGGA,054050.10,3714.4226,N,12646.4609,E,2,09,1.0,6.64,M,22.50,M,01,0090*64
$GPGGA,054050.20,3714.4224,N,12646.4612,E,2,09,1.0,6.65,M,22.50,M,01,0090*6E
$GPGGA,054050.30,3714.4221,N,12646.4615,E,2,09,1.0,6.63,M,22.50,M,01,0090*6B
$GPGGA,054050.40,3714.4219,N,12646.4618,E,2,09,1.0,6.62,M,22.50,M,01,0090*6B
$GPGGA,054050.50,3714.4217,N,12646.4621,E,2,09,1.0,6.63,M,22.50,M,00,0090*6E
$GPGGA,054050.60,3714.4214,N,12646.4623,E,2,09,1.0,6.63,M,22.50,M,00,0090*6C
$GPGGA,054050.70,3714.4212,N,12646.4626,E,2,09,1.0,6.63,M,22.50,M,00,0090*6E
$GPGGA,054050.80,3714.4210,N,12646.4628,E,2,09,1.0,6.63,M,22.50,M,00,0090*6D
$GPGGA,054050.90,3714.4207,N,12646.4630,E,2,09,1.0,6.64,M,22.50,M,00,0090*64
$GPGGA,054051.00,3714.4205,N,12646.4632,E,2,09,1.0,6.64,M,22.50,M,01,0090*6D
$GPGGA,054051.10,3714.4202,N,12646.4634,E,2,09,1.0,6.64,M,22.50,M,01,0090*6D
$GPGGA,054051.20,3714.4200,N,12646.4636,E,2,09,1.0,6.64,M,22.50,M,01,0090*6E
$GPGGA,054051.30,3714.4197,N,12646.4638,E,2,09,1.0,6.63,M,22.50,M,01,0090*6B
$GPGGA,054051.40,3714.4194,N,12646.4639,E,2,09,1.0,6.63,M,22.50,M,01,0090*6E
$GPGGA,054051.50,3714.4192,N,12646.4640,E,2,09,1.0,6.63,M,22.50,M,00,0090*66
$GPGGA,054051.60,3714.4189,N,12646.4642,E,2,09,1.0,6.63,M,22.50,M,00,0090*6D
$GPGGA,054051.70,3714.4186,N,12646.4642,E,2,09,1.0,6.63,M,22.50,M,00,0090*63
$GPGGA,054051.80,3714.4184,N,12646.4643,E,2,09,1.0,6.63,M,22.50,M,00,0090*6F
$GPGGA,054051.90,3714.4181,N,12646.4644,E,2,09,1.0,6.63,M,22.50,M,00,0090*6C
$GPGGA,054052.00,3714.4178,N,12646.4645,E,2,09,1.0,6.64,M,22.50,M,01,0090*67
$GPGGA,054052.10,3714.4176,N,12646.4645,E,2,09,1.0,6.63,M,22.50,M,01,0090*6F
$GPGGA,054052.20,3714.4173,N,12646.4645,E,2,09,1.0,6.63,M,22.50,M,01,0090*69
$GPGGA,054052.30,3714.4170,N,12646.4645,E,2,09,1.0,6.63,M,22.50,M,01,0090*6B
$GPGGA,054052.40,3714.4168,N,12646.4645,E,2,09,1.0,6.61,M,22.50,M,01,0090*67
$GPGGA,054052.50,3714.4165,N,12646.4645,E,2,09,1.0,6.62,M,22.50,M,01,0090*68
$GPGGA,054052.60,3714.4163,N,12646.4645,E,2,09,1.0,6.67,M,22.50,M,01,0090*68
$GPGGA,054052.70,3714.4160,N,12646.4645,E,2,09,1.0,6.63,M,22.50,M,01,0090*6E
$GPGGA,054052.80,3714.4157,N,12646.4644,E,2,09,1.0,6.63,M,22.50,M,01,0090*64
$GPGGA,054052.90,3714.4155,N,12646.4644,E,2,09,1.0,6.63,M,22.50,M,01,0090*67
$GPGGA,054053.00,3714.4152,N,12646.4643,E,2,09,1.0,6.64,M,22.50,M,02,0090*6B
$GPGGA,054053.10,3714.4150,N,12646.4643,E,2,09,1.0,6.62,M,22.50,M,02,0090*6E
$GPGGA,054053.20,3714.4147,N,12646.4642,E,2,09,1.0,6.63,M,22.50,M,02,0090*6B
$GPGGA,054053.30,3714.4145,N,12646.4641,E,2,09,1.0,6.63,M,22.50,M,02,0090*6B
$GPGGA,054053.40,3714.4143,N,12646.4640,E,2,09,1.0,6.63,M,22.50,M,02,0090*6B
$GPGGA,054053.50,3714.4140,N,12646.4639,E,2,09,1.0,6.64,M,22.50,M,01,0090*63
$GPGGA,054053.60,3714.4138,N,12646.4638,E,2,09,1.0,6.63,M,22.50,M,01,0090*69
$GPGGA,054053.70,3714.4136,N,12646.4637,E,2,09,1.0,6.64,M,22.50,M,00,0090*6F
$GPGGA,054053.80,3714.4134,N,12646.4636,E,2,09,1.0,6.64,M,22.50,M,00,0090*63
$GPGGA,054053.90,3714.4131,N,12646.4635,E,2,09,1.0,6.64,M,22.50,M,00,0090*64
$GPGGA,054054.00,3714.4129,N,12646.4634,E,2,09,1.0,6.63,M,22.50,M,01,0090*64
$GPGGA,054054.10,3714.4127,N,12646.4632,E,2,09,1.0,6.63,M,22.50,M,01,0090*6D
$GPGGA,054054.20,3714.4125,N,12646.4631,E,2,09,1.0,6.65,M,22.50,M,01,0090*69
$GPGGA,054054.30,3714.4123,N,12646.4629,E,2,09,1.0,6.61,M,22.50,M,01,0090*63
$GPGGA,054054.40,3714.4121,N,12646.4628,E,2,09,1.0,6.62,M,22.50,M,01,0090*64
$GPGGA,054054.50,3714.4119,N,12646.4627,E,2,09,1.0,6.61,M,22.50,M,01,0090*62
$GPGGA,054054.60,3714.4116,N,12646.4625,E,2,09,1.0,6.62,M,22.50,M,01,0090*6F
$GPGGA,054054.70,3714.4114,N,12646.4624,E,2,09,1.0,6.61,M,22.50,M,00,0090*6F
$GPGGA,054054.80,3714.4112,N,12646.4623,E,2,09,1.0,6.61,M,22.50,M,00,0090*61
$GPGGA,054054.90,3714.4110,N,12646.4621,E,2,09,1.0,6.61,M,22.50,M,00,0090*60
$GPGGA,054055.00,3714.4108,N,12646.4620,E,2,09,1.0,6.61,M,22.50,M,01,0090*61
$GPGGA,054055.10,3714.4106,N,12646.4619,E,2,09,1.0,6.60,M,22.50,M,01,0090*65
$GPGGA,054055.20,3714.4104,N,12646.4618,E,2,09,1.0,6.60,M,22.50,M,01,0090*65
$GPGGA,054055.30,3714.4102,N,12646.4616,E,2,09,1.0,6.61,M,22.50,M,01,0090*6D
$GPGGA,054055.40,3714.4101,N,12646.4615,E,2,09,1.0,6.63,M,22.50,M,01,0090*68
$GPGGA,054055.50,3714.4099,N,12646.4614,E,2,09,1.0,6.62,M,22.50,M,01,0090*69
$GPGGA,054055.60,3714.4097,N,12646.4613,E,2,09,1.0,6.62,M,22.50,M,01,0090*63
$GPGGA,054055.70,3714.4095,N,12646.4611,E,2,09,1.0,6.62,M,22.50,M,00,0090*63
$GPGGA,054055.80,3714.4093,N,12646.4610,E,2,09,1.0,6.62,M,22.50,M,00,0090*6B
$GPGGA,054055.90,3714.4091,N,12646.4609,E,2,09,1.0,6.64,M,22.50,M,00,0090*66
$GPGGA,054056.00,3714.4089,N,12646.4607,E,2,09,1.0,6.67,M,22.50,M,01,0090*69
$GPGGA,054056.10,3714.4087,N,12646.4606,E,2,09,1.0,6.67,M,22.50,M,01,0090*67
$GPGGA,054056.20,3714.4085,N,12646.4605,E,2,09,1.0,6.66,M,22.50,M,01,0090*64
$GPGGA,054056.30,3714.4083,N,12646.4604,E,2,09,1.0,6.63,M,22.50,M,01,0090*67
$GPGGA,054056.40,3714.4081,N,12646.4603,E,2,09,1.0,6.62,M,22.50,M,01,0090*64
$GPGGA,054056.50,3714.4079,N,12646.4601,E,2,09,1.0,6.63,M,22.50,M,01,0090*61
$GPGGA,054056.60,3714.4078,N,12646.4600,E,2,09,1.0,6.63,M,22.50,M,00,0090*63
$GPGGA,054056.70,3714.4076,N,12646.4599,E,2,09,1.0,6.62,M,22.50,M,00,0090*6E
$GPGGA,054056.80,3714.4074,N,12646.4598,E,2,09,1.0,6.58,M,22.50,M,00,0090*6B
$GPGGA,054056.90,3714.4072,N,12646.4596,E,2,09,1.0,6.55,M,22.50,M,00,0090*6F
$GPGGA,054057.00,3714.4070,N,12646.4595,E,2,09,1.0,6.56,M,22.50,M,01,0090*64
$GPGGA,054057.10,3714.4068,N,12646.4594,E,2,09,1.0,6.58,M,22.50,M,01,0090*63
$GPGGA,054057.20,3714.4066,N,12646.4592,E,2,09,1.0,6.59,M,22.50,M,01,0090*69
$GPGGA,054057.30,3714.4064,N,12646.4591,E,2,09,1.0,6.60,M,22.50,M,01,0090*63
$GPGGA,054057.40,3714.4062,N,12646.4590,E,2,09,1.0,6.60,M,22.50,M,01,0090*63
$GPGGA,054057.50,3714.4060,N,12646.4588,E,2,09,1.0,6.60,M,22.50,M,01,0090*69
$GPGGA,054057.60,3714.4058,N,12646.4587,E,2,09,1.0,6.60,M,22.50,M,00,0090*6F
$GPGGA,054057.70,3714.4056,N,12646.4586,E,2,09,1.0,6.60,M,22.50,M,00,0090*61
$GPGGA,054057.80,3714.4053,N,12646.4584,E,2,09,1.0,6.60,M,22.50,M,00,0090*69
$GPGGA,054057.90,3714.4051,N,12646.4583,E,2,09,1.0,6.61,M,22.50,M,00,0090*6C
$GPGGA,054058.00,3714.4049,N,12646.4581,E,2,09,1.0,6.60,M,22.50,M,01,0090*61
$GPGGA,054058.10,3714.4047,N,12646.4580,E,2,09,1.0,6.60,M,22.50,M,01,0090*6F
$GPGGA,054058.20,3714.4045,N,12646.4579,E,2,09,1.0,6.60,M,22.50,M,01,0090*68
$GPGGA,054058.30,3714.4043,N,12646.4577,E,2,09,1.0,6.63,M,22.50,M,01,0090*62
$GPGGA,054058.40,3714.4041,N,12646.4576,E,2,09,1.0,6.64,M,22.50,M,01,0090*61
$GPGGA,054058.50,3714.4038,N,12646.4574,E,2,09,1.0,6.63,M,22.50,M,00,0090*6A
$GPGGA,054058.60,3714.4036,N,12646.4573,E,2,09,1.0,6.63,M,22.50,M,00,0090*60
$GPGGA,054058.70,3714.4034,N,12646.4571,E,2,09,1.0,6.64,M,22.50,M,00,0090*66
$GPGGA,054058.80,3714.4032,N,12646.4570,E,2,09,1.0,6.63,M,22.50,M,00,0090*69
$GPGGA,054058.90,3714.4029,N,12646.4568,E,2,09,1.0,6.64,M,22.50,M,00,0090*6C
$GPGGA,054059.00,3714.4027,N,12646.4567,E,2,09,1.0,6.63,M,22.50,M,01,0090*63
$GPGGA,054059.10,3714.4025,N,12646.4565,E,2,09,1.0,6.64,M,22.50,M,01,0090*65
$GPGGA,054059.20,3714.4022,N,12646.4563,E,2,09,1.0,6.64,M,22.50,M,01,0090*67
$GPGGA,054059.30,3714.4020,N,12646.4562,E,2,09,1.0,6.65,M,22.50,M,01,0090*64
$GPGGA,054059.40,3714.4018,N,12646.4561,E,2,09,1.0,6.63,M,22.50,M,01,0090*6D
$GPGGA,054059.50,3714.4015,N,12646.4559,E,2,09,1.0,6.64,M,22.50,M,00,0090*6C
$GPGGA,054059.60,3714.4013,N,12646.4557,E,2,09,1.0,6.65,M,22.50,M,00,0090*66
$GPGGA,054059.70,3714.4010,N,12646.4556,E,2,09,1.0,6.64,M,22.50,M,00,0090*64
$GPGGA,054059.80,3714.4008,N,12646.4554,E,2,09,1.0,6.66,M,22.50,M,00,0090*62
$GPGGA,054059.90,3714.4006,N,12646.4553,E,2,09,1.0,6.65,M,22.50,M,00,0090*69
$GPGGA,054100.00,3714.4003,N,12646.4551,E,2,09,1.0,6.68,M,22.50,M,01,0090*66
$GPGGA,054100.10,3714.4001,N,12646.4549,E,2,09,1.0,6.67,M,22.50,M,01,0090*63
$GPGGA,054100.20,3714.3998,N,12646.4548,E,2,09,1.0,6.66,M,22.50,M,01,0090*6E
$GPGGA,054100.30,3714.3996,N,12646.4546,E,2,09,1.0,6.63,M,22.50,M,01,0090*6A
$GPGGA,054100.40,3714.3993,N,12646.4544,E,2,09,1.0,6.62,M,22.50,M,01,0090*6B
$GPGGA,054100.50,3714.3991,N,12646.4542,E,2,09,1.0,6.63,M,22.50,M,00,0090*6E
$GPGGA,054100.60,3714.3988,N,12646.4541,E,2,09,1.0,6.64,M,22.50,M,00,0090*61
$GPGGA,054100.70,3714.3986,N,12646.4539,E,2,09,1.0,6.64,M,22.50,M,00,0090*61
$GPGGA,054100.80,3714.3983,N,12646.4537,E,2,09,1.0,6.63,M,22.50,M,00,0090*62
$GPGGA,054100.90,3714.3981,N,12646.4536,E,2,09,1.0,6.64,M,22.50,M,00,0090*67
$GPGGA,054101.00,3714.3978,N,12646.4534,E,2,09,1.0,6.64,M,22.50,M,01,0090*6A
$GPGGA,054101.10,3714.3975,N,12646.4532,E,2,09,1.0,6.64,M,22.50,M,01,0090*60
$GPGGA,054101.20,3714.3973,N,12646.4531,E,2,09,1.0,6.64,M,22.50,M,01,0090*66
$GPGGA,054101.30,3714.3970,N,12646.4529,E,2,09,1.0,6.61,M,22.50,M,01,0090*68
$GPGGA,054101.40,3714.3967,N,12646.4527,E,2,09,1.0,6.62,M,22.50,M,01,0090*64
$GPGGA,054101.50,3714.3965,N,12646.4525,E,2,09,1.0,6.62,M,22.50,M,00,0090*64
$GPGGA,054101.60,3714.3962,N,12646.4523,E,2,09,1.0,6.62,M,22.50,M,00,0090*66
$GPGGA,054101.70,3714.3959,N,12646.4521,E,2,09,1.0,6.62,M,22.50,M,00,0090*6D
$GPGGA,054101.80,3714.3956,N,12646.4520,E,2,09,1.0,6.62,M,22.50,M,00,0090*6C
$GPGGA,054101.90,3714.3953,N,12646.4518,E,2,09,1.0,6.61,M,22.50,M,00,0090*60
$GPGGA,054102.00,3714.3950,N,12646.4516,E,2,09,1.0,6.62,M,22.50,M,01,0090*65
$GPGGA,054102.10,3714.3948,N,12646.4514,E,2,09,1.0,6.61,M,22.50,M,01,0090*6C
$GPGGA,054102.20,3714.3945,N,12646.4512,E,2,09,1.0,6.61,M,22.50,M,01,0090*64
$GPGGA,054102.30,3714.3941,N,12646.4510,E,2,09,1.0,6.66,M,22.50,M,01,0090*64
$GPGGA,054102.40,3714.3938,N,12646.4508,E,2,09,1.0,6.64,M,22.50,M,01,0090*66
$GPGGA,054102.50,3714.3936,N,12646.4506,E,2,09,1.0,6.64,M,22.50,M,01,0090*67
$GPGGA,054102.60,3714.3933,N,12646.4504,E,2,09,1.0,6.65,M,22.50,M,01,0090*62
$GPGGA,054102.70,3714.3930,N,12646.4503,E,2,08,1.0,6.65,M,22.50,M,00,0090*67
$GPGGA,054102.80,3714.3927,N,12646.4501,E,2,08,1.0,6.63,M,22.50,M,00,0090*6A
$GPGGA,054102.90,3714.3924,N,12646.4499,E,2,08,1.0,6.64,M,22.50,M,00,0090*6F
$GPGGA,054103.00,3714.3921,N,12646.4497,E,2,08,1.0,6.65,M,22.50,M,01,0090*6C
$GPGGA,054103.10,3714.3918,N,12646.4495,E,2,08,1.0,6.64,M,22.50,M,01,0090*64
$GPGGA,054103.20,3714.3915,N,12646.4493,E,2,08,1.0,6.63,M,22.50,M,01,0090*6B
$GPGGA,054103.30,3714.3912,N,12646.4491,E,2,08,1.0,6.64,M,22.50,M,01,0090*68
$GPGGA,054103.40,3714.3909,N,12646.4489,E,2,08,1.0,6.65,M,22.50,M,01,0090*6D
$GPGGA,054103.50,3714.3906,N,12646.4487,E,2,08,1.0,6.65,M,22.50,M,01,0090*6D
$GPGGA,054103.60,3714.3903,N,12646.4485,E,2,08,1.0,6.64,M,22.50,M,01,0090*68
$GPGGA,054103.70,3714.3901,N,12646.4484,E,2,09,1.0,6.65,M,22.50,M,00,0090*6B
$GPGGA,054103.80,3714.3898,N,12646.4482,E,2,09,1.0,6.65,M,22.50,M,00,0090*63
$GPGGA,054103.90,3714.3895,N,12646.4480,E,2,09,1.0,6.65,M,22.50,M,00,0090*6D
$GPGGA,054104.00,3714.3892,N,12646.4478,E,2,09,0.9,6.65,M,22.50,M,01,0090*6A
$GPGGA,054104.10,3714.3889,N,12646.4476,E,2,09,0.9,6.65,M,22.50,M,01,0090*6F
$GPGGA,054104.20,3714.3886,N,12646.4474,E,2,09,0.9,6.65,M,22.50,M,01,0090*61
$GPGGA,054104.30,3714.3884,N,12646.4473,E,2,09,0.9,6.65,M,22.50,M,01,0090*65
$GPGGA,054104.40,3714.3881,N,12646.4471,E,2,09,0.9,6.65,M,22.50,M,01,0090*65
$GPGGA,054104.50,3714.3878,N,12646.4469,E,2,09,0.9,6.65,M,22.50,M,01,0090*6B
$GPGGA,054104.60,3714.3875,N,12646.4467,E,2,09,0.9,6.65,M,22.50,M,00,0090*6A
$GPGGA,054104.70,3714.3872,N,12646.4465,E,2,09,0.9,6.65,M,22.50,M,00,0090*6E
$GPGGA,054104.80,3714.3870,N,12646.4464,E,2,09,0.9,6.65,M,22.50,M,00,0090*62
$GPGGA,054104.90,3714.3867,N,12646.4462,E,2,09,0.9,6.64,M,22.50,M,00,0090*62
$GPGGA,054105.00,3714.3864,N,12646.4460,E,2,09,0.9,6.65,M,22.50,M,01,0090*6B
$GPGGA,054105.10,3714.3861,N,12646.4458,E,2,09,0.9,6.64,M,22.50,M,01,0090*65
$GPGGA,054105.20,3714.3859,N,12646.4457,E,2,09,0.9,6.64,M,22.50,M,01,0090*62
$GPGGA,054105.30,3714.3856,N,12646.4455,E,2,09,0.9,6.65,M,22.50,M,01,0090*6F
$GPGGA,054105.40,3714.3853,N,12646.4454,E,2,09,0.9,6.64,M,22.50,M,01,0090*6D
$GPGGA,054105.50,3714.3851,N,12646.4452,E,2,09,0.9,6.66,M,22.50,M,01,0090*6A
$GPGGA,054105.60,3714.3848,N,12646.4450,E,2,09,0.9,6.66,M,22.50,M,00,0090*62
$GPGGA,054105.70,3714.3846,N,12646.4449,E,2,09,0.9,6.65,M,22.50,M,00,0090*66
$GPGGA,054105.80,3714.3843,N,12646.4447,E,2,09,0.9,6.66,M,22.50,M,00,0090*61
$GPGGA,054105.90,3714.3840,N,12646.4445,E,2,09,0.9,6.67,M,22.50,M,00,0090*60
$GPGGA,054106.00,3714.3838,N,12646.4444,E,2,09,0.9,6.70,M,22.50,M,01,0090*63
$GPGGA,054106.10,3714.3835,N,12646.4442,E,2,09,0.9,6.71,M,22.50,M,01,0090*68
$GPGGA,054106.20,3714.3833,N,12646.4440,E,2,09,0.9,6.70,M,22.50,M,01,0090*6E
$GPGGA,054106.30,3714.3830,N,12646.4439,E,2,09,0.9,6.71,M,22.50,M,01,0090*63
$GPGGA,054106.40,3714.3828,N,12646.4437,E,2,09,0.9,6.71,M,22.50,M,01,0090*63
$GPGGA,054106.50,3714.3825,N,12646.4435,E,2,09,0.9,6.70,M,22.50,M,00,0090*6D
$GPGGA,054106.60,3714.3823,N,12646.4434,E,2,09,0.9,6.69,M,22.50,M,00,0090*61
$GPGGA,054106.70,3714.3820,N,12646.4432,E,2,09,0.9,6.67,M,22.50,M,00,0090*6B
$GPGGA,054106.80,3714.3818,N,12646.4430,E,2,09,0.9,6.66,M,22.50,M,00,0090*6C
$GPGGA,054106.90,3714.3816,N,12646.4428,E,2,09,0.9,6.67,M,22.50,M,00,0090*6B
$GPGGA,054107.00,3714.3813,N,12646.4426,E,2,09,0.9,6.67,M,22.50,M,01,0090*69
$GPGGA,054107.10,3714.3811,N,12646.4425,E,2,09,0.9,6.68,M,22.50,M,01,0090*66
$GPGGA,054107.20,3714.3809,N,12646.4423,E,2,09,0.9,6.67,M,22.50,M,01,0090*65
$GPGGA,054107.30,3714.3806,N,12646.4421,E,2,09,0.9,6.64,M,22.50,M,01,0090*6A
$GPGGA,054107.40,3714.3804,N,12646.4419,E,2,09,0.9,6.64,M,22.50,M,01,0090*64
$GPGGA,054107.50,3714.3802,N,12646.4417,E,2,09,0.9,6.64,M,22.50,M,00,0090*6C
$GPGGA,054107.60,3714.3800,N,12646.4415,E,2,09,0.9,6.65,M,22.50,M,00,0090*6E
$GPGGA,054107.70,3714.3797,N,12646.4413,E,2,09,0.9,6.65,M,22.50,M,00,0090*68
$GPGGA,054107.80,3714.3795,N,12646.4411,E,2,09,0.9,6.64,M,22.50,M,00,0090*66
$GPGGA,054107.90,3714.3793,N,12646.4409,E,2,09,0.9,6.65,M,22.50,M,00,0090*69
$GPGGA,054108.00,3714.3791,N,12646.4406,E,2,09,0.9,6.65,M,22.50,M,01,0090*63
$GPGGA,054108.10,3714.3789,N,12646.4404,E,2,09,0.9,6.64,M,22.50,M,01,0090*68
$GPGGA,054108.20,3714.3787,N,12646.4402,E,2,09,0.9,6.64,M,22.50,M,01,0090*63
$GPGGA,054108.30,3714.3785,N,12646.4400,E,2,09,0.9,6.62,M,22.50,M,01,0090*64
$GPGGA,054108.40,3714.3783,N,12646.4397,E,2,09,0.9,6.62,M,22.50,M,01,0090*6C
$GPGGA,054108.50,3714.3781,N,12646.4395,E,2,09,0.9,6.62,M,22.50,M,01,0090*6D
$GPGGA,054108.60,3714.3780,N,12646.4393,E,2,09,0.9,6.62,M,22.50,M,00,0090*68
$GPGGA,054108.70,3714.3778,N,12646.4390,E,2,09,0.9,6.63,M,22.50,M,00,0090*6C
$GPGGA,054108.80,3714.3776,N,12646.4388,E,2,09,0.9,6.63,M,22.50,M,00,0090*64
$GPGGA,054108.90,3714.3775,N,12646.4385,E,2,09,0.9,6.63,M,22.50,M,00,0090*6B
$GPGGA,054109.00,3714.3773,N,12646.4382,E,2,09,0.9,6.64,M,22.50,M,01,0090*64
$GPGGA,054109.10,3714.3772,N,12646.4380,E,2,09,0.9,6.63,M,22.50,M,01,0090*61
$GPGGA,054109.20,3714.3770,N,12646.4377,E,2,09,0.9,6.64,M,22.50,M,01,0090*6F
$GPGGA,054109.30,3714.3769,N,12646.4375,E,2,09,0.9,6.68,M,22.50,M,01,0090*68
$GPGGA,054109.40,3714.3768,N,12646.4372,E,2,09,0.9,6.68,M,22.50,M,01,0090*69
$GPGGA,054109.50,3714.3767,N,12646.4369,E,2,09,0.9,6.67,M,22.50,M,01,0090*62
$GPGGA,054109.60,3714.3766,N,12646.4367,E,2,09,0.9,6.67,M,22.50,M,01,0090*6E
$GPGGA,054109.70,3714.3765,N,12646.4364,E,2,09,0.9,6.66,M,22.50,M,00,0090*6F
$GPGGA,054109.80,3714.3764,N,12646.4361,E,2,09,0.9,6.66,M,22.50,M,00,0090*64
$GPGGA,054109.90,3714.3763,N,12646.4358,E,2,09,0.9,6.67,M,22.50,M,00,0090*69
$GPGGA,054110.00,3714.3762,N,12646.4355,E,2,09,0.9,6.68,M,22.50,M,01,0090*6A
$GPGGA,054110.10,3714.3762,N,12646.4352,E,2,09,0.9,6.68,M,22.50,M,01,0090*6C
$GPGGA,054110.20,3714.3761,N,12646.4349,E,2,09,0.9,6.67,M,22.50,M,01,0090*69
$GPGGA,054110.30,3714.3761,N,12646.4347,E,2,09,0.9,6.63,M,22.50,M,01,0090*62
$GPGGA,054110.40,3714.3761,N,12646.4344,E,2,09,0.9,6.63,M,22.50,M,01,0090*66
$GPGGA,054110.50,3714.3760,N,12646.4341,E,2,09,0.9,6.64,M,22.50,M,01,0090*64
$GPGGA,054110.60,3714.3760,N,12646.4338,E,2,09,0.9,6.63,M,22.50,M,01,0090*6E
$GPGGA,054110.70,3714.3760,N,12646.4335,E,2,09,0.9,6.63,M,22.50,M,00,0090*63
$GPGGA,054110.80,3714.3760,N,12646.4332,E,2,09,0.9,6.63,M,22.50,M,00,0090*6B
$GPGGA,054110.90,3714.3761,N,12646.4330,E,2,09,0.9,6.63,M,22.50,M,00,0090*69
$GPGGA,054111.00,3714.3761,N,12646.4327,E,2,09,0.9,6.62,M,22.50,M,01,0090*67
$GPGGA,054111.10,3714.3761,N,12646.4324,E,2,09,0.9,6.62,M,22.50,M,01,0090*65
$GPGGA,054111.20,3714.3762,N,12646.4321,E,2,09,0.9,6.62,M,22.50,M,01,0090*60
